time,.header.seq,.header.stamp.secs,.header.stamp.nsecs,.header.frame_id,.child_frame_id,.pose.pose.position.x,.pose.pose.position.y,.pose.pose.position.z,.pose.pose.orientation.x,.pose.pose.orientation.y,.pose.pose.orientation.z,.pose.pose.orientation.w,.pose.covariance,.twist.twist.linear.x,.twist.twist.linear.y,.twist.twist.linear.z,.twist.twist.angular.x,.twist.twist.angular.y,.twist.twist.angular.z,.twist.covariance
1969/12/31/21:22:32.070000,2664,1352,70000000,odom,base_link,0.0003014983187249812,-5.39516647506133e-08,0.0,0.0,0.0,-8.673383589823474e-05,0.9999999962386209,"(2.6657765359800476, 7.092171877000299e-11, 0.0, 0.0, 0.0, 1.7315989585314557e-07, 7.092171877000591e-11, 2.6657769323086558, 0.0, 0.0, 0.0, 0.000976660272874251, 0.0, 0.0, 0.0006003331818643033, 1.1250473304377285e-22, -4.101144734861629e-14, 0.0, 0.0, 0.0, 1.1250473304377283e-22, 0.0003003329978219526, 1.5153909613095207e-31, 0.0, 0.0, 0.0, -4.101144734861629e-14, -1.5153909613095207e-31, 0.0003003329978219526, 0.0, 1.7315989585314886e-07, 0.0009766602728742792, 0.0, 0.0, 0.0, 3.1974265943551776)",1.231734726721407e-05,0.0,0.0,0.0,0.0,-2.7432522111121476e-07,"(0.0007064108013611596, 0.0, 0.0, 0.0, 0.0, 0.0, 0.0, 0.0007064108013611596, 0.0, 0.0, 0.0, 0.0, 0.0, 0.0, 0.0004003330897366635, -2.5407520650983354e-38, -1.8197583958680283e-28, 0.0, 0.0, 0.0, -2.540752065098335e-38, 0.00010033223673539186, -5.158581380313397e-47, 0.0, 0.0, 0.0, -1.8197583958680274e-28, -4.726541148265414e-47, 0.00010033223673539186, 0.0, 0.0, 0.0, 0.0, 0.0, 0.0, 0.00020000099995727829)"
1969/12/31/21:22:32.090000,2665,1352,90000000,odom,base_link,0.00030174467808547357,-5.3994400265179766e-08,0.0,0.0,0.0,-8.673403995275938e-05,0.9999999962386031,"(2.6667776567205377, 7.100615007555497e-11, 0.0, 0.0, 0.0, 1.7329655234518052e-07, 7.100615007555788e-11, 2.6667780535305585, 0.0, 0.0, 0.0, 0.0009774480627561606, 0.0, 0.0, 0.0006004998418050102, -3.950229282198164e-23, -6.155297243955017e-14, 0.0, 0.0, 0.0, -3.950229282198164e-23, 0.00030049963383145756, -2.7252161444364814e-33, 0.0, 0.0, 0.0, -6.155297243955016e-14, 2.72502806534035e-33, 0.00030049963383145756, 0.0, 1.7329655234518383e-07, 0.0009774480627561888, 0.0, 0.0, 0.0, 3.1986266043555767)",1.2318589152712374e-05,0.0,0.0,0.0,0.0,6.42333427730237e-08,"(0.0012304450031326557, 0.0, 0.0, 0.0, 0.0, 0.0, 0.0, 0.0012304450031326557, 0.0, 0.0, 0.0, 0.0, 0.0, 0.0, 0.0004004997377706222, 8.808477487867483e-31, -3.196794350858152e-22, 0.0, 0.0, 0.0, 8.808477487867481e-31, 0.00010049875516938037, 5.474409187428489e-38, 0.0, 0.0, 0.0, -3.196794350858151e-22, 5.333845151017248e-38, 0.00010049875516938037, 0.0, 0.0, 0.0, 0.0, 0.0, 0.0, 0.00020000099995731992)"
1969/12/31/21:22:32.110000,2666,1352,110000000,odom,base_link,0.00030199106059553596,-5.4037139727588316e-08,0.0,0.0,0.0,-8.673389192040641e-05,0.999999996238616,"(2.6677774111686894, 7.109065656490183e-11, 0.0, 0.0, 0.0, 1.7343327268630206e-07, 7.109065656490474e-11, 2.6677778084605563, 0.0, 0.0, 0.0, 0.0009782362219636755, 0.0, 0.0, 0.0006003331818643033, 8.451303520964712e-25, -4.1019760374395636e-14, 0.0, 0.0, 0.0, 8.451303520964713e-25, 0.0003003329978219526, -3.5867484896993615e-34, 0.0, 0.0, 0.0, -4.1019760374395636e-14, 3.5867484896993615e-34, 0.0003003329978219526, 0.0, 1.7343327268630537e-07, 0.0009782362219637037, 0.0, 0.0, 0.0, 3.1998266143227516)",1.231984397634089e-05,0.0,0.0,0.0,0.0,-2.0604201768045825e-09,"(0.0007047063591802203, 0.0, 0.0, 0.0, 0.0, 0.0, 0.0, 0.0007047063591802203, 0.0, 0.0, 0.0, 0.0, 0.0, 0.0, 0.0004003330897366635, -1.1913946829564274e-37, -1.8201300744719496e-28, 0.0, 0.0, 0.0, -1.191394682956428e-37, 0.00010033223673539186, -1.4253017690552977e-46, 0.0, 0.0, 0.0, -1.8201300744719487e-28, -1.2231806237459842e-46, 0.00010033223673539186, 0.0, 0.0, 0.0, 0.0, 0.0, 0.0, 0.00020000099995727829)"
1969/12/31/21:22:32.130000,2667,1352,130000000,odom,base_link,0.00030223746989198016,-5.4079883949916545e-08,0.0,0.0,0.0,-8.673567458417077e-05,0.9999999962384614,"(2.6687785306455565, 7.117523978615404e-11, 0.0, 0.0, 0.0, 1.7357005961035965e-07, 7.117523978615689e-11, 2.6687789284197105, 0.0, 0.0, 0.0, 0.0009790247629143385, 0.0, 0.0, 0.0006004998418186527, 1.4591093642791694e-22, -6.156544886163557e-14, 0.0, 0.0, 0.0, 1.4591093642791692e-22, 0.00030049963383827876, 2.9556144477908707e-31, 0.0, 0.0, 0.0, -6.156544886163557e-14, -2.9556155057357865e-31, 0.00030049963383827876, 0.0, 1.7357005961036296e-07, 0.0009790247629143667, 0.0, 0.0, 0.0, 3.2010266243231644)",1.232108603856285e-05,0.0,0.0,0.0,0.0,-2.3700091362712117e-07,"(0.0012286974560334406, 0.0, 0.0, 0.0, 0.0, 0.0, 0.0, 0.0012286974560334406, 0.0, 0.0, 0.0, 0.0, 0.0, 0.0, 0.00040049973777971716, 6.617270627275248e-33, -3.197442331762702e-22, 0.0, 0.0, 0.0, 6.61727062727525e-33, 0.0001004987551716541, 4.0195407137100205e-40, 0.0, 0.0, 0.0, -3.1974423317627024e-22, 4.102234386566893e-40, 0.0001004987551716541, 0.0, 0.0, 0.0, 0.0, 0.0, 0.0, 0.0002000009999618674)"
1969/12/31/21:22:32.150000,2668,1352,150000000,odom,base_link,0.0003024839040296655,-5.4122633391095116e-08,0.0,0.0,0.0,-8.673666072545897e-05,0.9999999962383759,"(2.669780642206677, 7.1259899859783e-11, 0.0, 0.0, 0.0, 1.7370691453517367e-07, 7.125989985978568e-11, 2.669781040463556, 0.0, 0.0, 0.0, 0.000979813679083548, 0.0, 0.0, 0.0006004998418339193, 3.234688731100585e-23, -6.157167840497551e-14, 0.0, 0.0, 0.0, 3.2346887311005847e-23, 0.0003004996339470317, -3.231270870569292e-32, 0.0, 0.0, 0.0, -6.157167840497551e-14, 3.231249711670977e-32, 0.0003004996339470317, 0.0, 1.7370691453517698e-07, 0.0009798136790835762, 0.0, 0.0, 0.0, 3.202226634323564)",1.2322328100784797e-05,0.0,0.0,0.0,0.0,-5.248581607020699e-08,"(0.001765717874116818, 0.0, 0.0, 0.0, 0.0, 0.0, 0.0, 0.001765717874116818, 0.0, 0.0, 0.0, 0.0, 0.0, 0.0, 0.00040049973783566265, 7.632935656959417e-31, -3.199347813732311e-22, 0.0, 0.0, 0.0, 7.632935656959413e-31, 0.00010049875620060888, 4.781482317597521e-38, 0.0, 0.0, 0.0, -3.1993478137323113e-22, 4.584397306658804e-38, 0.00010049875620060888, 0.0, 0.0, 0.0, 0.0, 0.0, 0.0, 0.00020000099995731992)"
1969/12/31/21:22:32.170000,2669,1352,170000000,odom,base_link,0.00030273031730123755,-5.4165379501468605e-08,0.0,0.0,0.0,-8.673617582648284e-05,0.9999999962384178,"(2.6707793995411695, 7.134463086277928e-11, 0.0, 0.0, 0.0, 1.738438268235738e-07, 7.134463086278216e-11, 2.6707797982811803, 0.0, 0.0, 0.0, 0.0009806029206083052, 0.0, 0.0, 0.0006004996339648284, -5.000951248983158e-23, -6.151012778446705e-14, 0.0, 0.0, 0.0, -5.000951248983158e-23, 0.00030049921918607535, 1.1353440280223572e-32, 0.0, 0.0, 0.0, -6.151012778446704e-14, -1.1353440280223572e-32, 0.00030049921918607535, 0.0, 1.738438268235771e-07, 0.0009806029206083334, 0.0, 0.0, 0.0, 3.203426644257735)",1.2322785957357697e-05,0.0,0.0,0.0,0.0,8.130295945860122e-08,"(0.0009056931289238516, 0.0, 0.0, 0.0, 0.0, 0.0, 0.0, 0.0009056931289238516, 0.0, 0.0, 0.0, 0.0, 0.0, 0.0, 0.00040049942639219435, 2.5631040880637713e-38, -5.190850896922425e-29, 0.0, 0.0, 0.0, 2.563104088063771e-38, 0.00010049752469171817, 3.3636579637710835e-46, 0.0, 0.0, 0.0, -5.190850896922425e-29, -2.3442276313851426e-46, 0.00010049752469171817, 0.0, 0.0, 0.0, 0.0, 0.0, 0.0, 0.00020000099995730336)"
1969/12/31/21:22:32.190000,2670,1352,190000000,odom,base_link,0.00030297678534169136,-5.4208134868563546e-08,0.0,0.0,0.0,-8.673629054245905e-05,0.999999996238408,"(2.671780965570004, 7.142943760671687e-11, 0.0, 0.0, 0.0, 1.7398080333284575e-07, 7.142943760671971e-11, 2.671781364793584, 0.0, 0.0, 0.0, 0.0009813925368395463, 0.0, 0.0, 0.0006004998418338833, 2.609707651088398e-23, -6.15801368107485e-14, 0.0, 0.0, 0.0, 2.6097076510883977e-23, 0.00030049963394674305, 6.445424045465116e-32, 0.0, 0.0, 0.0, -6.158013681074852e-14, 3.415342118711729e-32, 0.00030049963394674305, 0.0, 1.7398080333284906e-07, 0.0009813925368395745, 0.0, 0.0, 0.0, 3.2046266542581336)",1.2324018458889906e-05,0.0,0.0,0.0,0.0,-4.239603840774841e-08,"(0.0014346566655978167, 0.0, 0.0, 0.0, 0.0, 0.0, 0.0, 0.0014346566655978167, 0.0, 0.0, 0.0, 0.0, 0.0, 0.0, 0.0004004997378355408, -2.618794476336927e-31, -3.199805896620318e-22, 0.0, 0.0, 0.0, -2.6187944763369264e-31, 0.000100498756192995, -1.5490156143703e-38, 0.0, 0.0, 0.0, -3.199805896620318e-22, -1.6637193008500642e-38, 0.000100498756192995, 0.0, 0.0, 0.0, 0.0, 0.0, 0.0, 0.00020000099995731992)"
1969/12/31/21:22:32.210000,2671,1352,210000000,odom,base_link,0.0003032232693200239,-5.4250893432848364e-08,0.0,0.0,0.0,-8.67403927913864e-05,0.9999999962380521,"(2.672780344503827, 7.151431972422529e-11, 0.0, 0.0, 0.0, 1.7411784450229582e-07, 7.15143197242284e-11, 2.672780744211408, 0.0, 0.0, 0.0, 0.000982182517823724, 0.0, 0.0, 0.0006004996339648284, 3.291506579309295e-22, -6.152165020403673e-14, 0.0, 0.0, 0.0, 3.2915065793092957e-22, 0.00030049921918607535, -1.336840809931514e-31, 0.0, 0.0, 0.0, -6.152165020403675e-14, 1.336840809931514e-31, 0.00030049921918607535, 0.0, 1.7411784450229913e-07, 0.0009821825178237525, 0.0, 0.0, 0.0, 3.2058266641923048)",1.2325093792599541e-05,0.0,0.0,0.0,0.0,-5.350159234043805e-07,"(0.0008863597222239995, 0.0, 0.0, 0.0, 0.0, 0.0, 0.0, 0.0008863597222239995, 0.0, 0.0, 0.0, 0.0, 0.0, 0.0, 0.00040049942639219435, 2.0402806676590524e-38, -5.191823672572172e-29, 0.0, 0.0, 0.0, 2.0402806676590522e-38, 0.00010049752469171817, 1.4052422460047342e-46, 0.0, 0.0, 0.0, -5.191823672572172e-29, -1.2678087261441609e-46, 0.00010049752469171817, 0.0, 0.0, 0.0, 0.0, 0.0, 0.0, 0.00020000099995730336)"
1969/12/31/21:22:32.230000,2672,1352,230000000,odom,base_link,0.0003034697834979852,-5.42936593208938e-08,0.0,0.0,0.0,-8.6742759691449e-05,0.9999999962378469,"(2.6737818136491454, 7.159927994781228e-11, 0.0, 0.0, 0.0, 1.7425495735694235e-07, 7.159927994781536e-11, 2.673782213841165, 0.0, 0.0, 0.0, 0.0009829728735058659, 0.0, 0.0, 0.0006004998418338833, 8.460301043532312e-23, -6.159166160012932e-14, 0.0, 0.0, 0.0, 8.460301043532313e-23, 0.00030049963394674305, 1.6379615701024548e-31, 0.0, 0.0, 0.0, -6.159166160012933e-14, 1.320262004949501e-31, 0.00030049963394674305, 0.0, 1.7425495735694566e-07, 0.0009829728735058943, 0.0, 0.0, 0.0, 3.2070266741927034)",1.2326324374513193e-05,0.0,0.0,0.0,0.0,-1.3724935870295358e-07,"(0.0014148661314898905, 0.0, 0.0, 0.0, 0.0, 0.0, 0.0, 0.0014148661314898905, 0.0, 0.0, 0.0, 0.0, 0.0, 0.0, 0.0004004997378355408, 1.723626170492551e-30, -3.2004050233433595e-22, 0.0, 0.0, 0.0, 1.7236261704925515e-30, 0.000100498756192995, 1.0431507650101376e-37, 0.0, 0.0, 0.0, -3.200405023343359e-22, 1.0718011055872446e-37, 0.000100498756192995, 0.0, 0.0, 0.0, 0.0, 0.0, 0.0, 0.00020000099995731992)"
1969/12/31/21:22:32.270000,2673,1352,250000000,odom,base_link,0.00030371633882212145,-5.433643310949063e-08,0.0,0.0,0.0,-8.67422090917554e-05,0.9999999962378946,"(2.6747809399046627, 7.168431845985519e-11, 0.0, 0.0, 0.0, 1.7439213998169702e-07, 7.168431845985844e-11, 2.6747813405815672, 0.0, 0.0, 0.0, 0.0009837636172618633, 0.0, 0.0, 0.0006003331817108255, -4.8522245657084234e-23, -4.104681384575184e-14, 0.0, 0.0, 0.0, -4.852224565708423e-23, 0.00030033299721119014, -3.074527202854084e-32, 0.0, 0.0, 0.0, -4.104681384575184e-14, 3.074527202854084e-32, 0.00030033299721119014, 0.0, 1.7439213998170033e-07, 0.0009837636172618917, 0.0, 0.0, 0.0, 3.208226684126875)",1.2328001352504906e-05,0.0,0.0,0.0,0.0,1.1821208845318466e-07,"(0.0006412311606605628, 0.0, 0.0, 0.0, 0.0, 0.0, 0.0, 0.0006412311606605628, 0.0, 0.0, 0.0, 0.0, 0.0, 0.0, 0.0004003330893921464, 3.0899504202914986e-38, -2.3146377954236738e-29, 0.0, 0.0, 0.0, 3.0899504202914976e-38, 0.00010033223137781579, 7.873281517526908e-47, 0.0, 0.0, 0.0, -2.3146377954236732e-29, 3.3896891148237233e-47, 0.00010033223137781579, 0.0, 0.0, 0.0, 0.0, 0.0, 0.0, 0.00020000099995727005)"
1969/12/31/21:22:32.270000,2674,1352,270000000,odom,base_link,0.00030396291120643844,-5.437920972296465e-08,0.0,0.0,0.0,-8.674458075731308e-05,0.9999999962376889,"(2.675781912294355, 7.176943466207367e-11, 0.0, 0.0, 0.0, 1.7452938988805512e-07, 7.17694346620769e-11, 2.6757823134565926, 0.0, 0.0, 0.0, 0.0009845547513396002, 0.0, 0.0, 0.0006004998418050102, 2.190715106519609e-22, -6.160618794871241e-14, 0.0, 0.0, 0.0, 2.190715106519609e-22, 0.0003004996338314571, -1.9101559856935516e-31, 0.0, 0.0, 0.0, -6.160618794871241e-14, 1.910155280396941e-31, 0.0003004996338314571, 0.0, 1.7452938988805845e-07, 0.0009845547513396286, 0.0, 0.0, 0.0, 3.2094266941272735)",1.232923745027193e-05,0.0,0.0,0.0,0.0,-3.556245282600572e-07,"(0.001163654692727447, 0.0, 0.0, 0.0, 0.0, 0.0, 0.0, 0.001163654692727447, 0.0, 0.0, 0.0, 0.0, 0.0, 0.0, 0.0004004997377706221, -3.799027214362333e-31, -3.199559261603238e-22, 0.0, 0.0, 0.0, -3.7990272143623344e-31, 0.00010049875516934717, -2.3412484564159764e-38, 0.0, 0.0, 0.0, -3.1995592616032395e-22, -2.3244600565529277e-38, 0.00010049875516934717, 0.0, 0.0, 0.0, 0.0, 0.0, 0.0, 0.00020000099995731992)"
1969/12/31/21:22:32.320000,2675,1352,290000000,odom,base_link,0.0003042095235916627,-5.442199443510086e-08,0.0,0.0,0.0,-8.674446751186984e-05,0.9999999962376986,"(2.6767817853125004, 7.185462982318294e-11, 0.0, 0.0, 0.0, 1.7466671115292896e-07, 7.185462982318611e-11, 2.676782186960519, 0.0, 0.0, 0.0, 0.0009853462752918134, 0.0, 0.0, 0.0006003331818643033, -5.45790259369789e-23, -4.105642406617557e-14, 0.0, 0.0, 0.0, -5.457902593697889e-23, 0.0003003329978219526, 5.511127323372939e-32, 0.0, 0.0, 0.0, -4.105642406617556e-14, -5.511127323372939e-32, 0.0003003329978219526, 0.0, 1.7466671115293232e-07, 0.0009853462752918418, 0.0, 0.0, 0.0, 3.2106267040944485)",1.2330854929317638e-05,0.0,0.0,0.0,0.0,1.3293727453371033e-07,"(0.0007003507904816748, 0.0, 0.0, 0.0, 0.0, 0.0, 0.0, 0.0007003507904816748, 0.0, 0.0, 0.0, 0.0, 0.0, 0.0, 0.0004003330897366635, 6.441864304818571e-37, -1.8217428853049683e-28, 0.0, 0.0, 0.0, 6.44186430481857e-37, 0.00010033223673539186, -4.187701448162836e-45, 0.0, 0.0, 0.0, -1.8217428853049692e-28, 6.189825319982476e-45, 0.00010033223673539186, 0.0, 0.0, 0.0, 0.0, 0.0, 0.0, 0.00020000099995727829)"
1969/12/31/21:22:32.320000,2676,1352,310000000,odom,base_link,0.00030445616003387747,-5.446478310485229e-08,0.0,0.0,0.0,-8.674483642932743e-05,0.9999999962376667,"(2.67778220522077, 7.19399027812995e-11, 0.0, 0.0, 0.0, 1.7480409960385698e-07, 7.19399027813027e-11, 2.677782607355018, 0.0, 0.0, 0.0, 0.0009861381905078475, 0.0, 0.0, 0.0006003332741226911, 3.8411327084384594e-23, -4.1089471024310224e-14, 0.0, 0.0, 0.0, 3.8411327084384594e-23, 0.0003003331816513806, 2.0239003455621686e-32, 0.0, 0.0, 0.0, -4.108947102431023e-14, -2.0238972598894977e-32, 0.0003003331816513806, 0.0, 1.7480409960386035e-07, 0.0009861381905078759, 0.0, 0.0, 0.0, 3.2118267140948475)",1.2332281782657142e-05,0.0,0.0,0.0,0.0,-9.350066524158171e-08,"(0.0007476686982579676, 0.0, 0.0, 0.0, 0.0, 0.0, 0.0, 0.0007476686982579676, 0.0, 0.0, 0.0, 0.0, 0.0, 0.0, 0.00040033322786895987, -1.9019848892893406e-31, -1.4244285907631555e-22, 0.0, 0.0, 0.0, -1.9019848892893408e-31, 0.00010033277961570535, -1.1776041081556989e-38, 0.0, 0.0, 0.0, -1.4244285907631557e-22, -1.160675886024862e-38, 0.00010033277961570535, 0.0, 0.0, 0.0, 0.0, 0.0, 0.0, 0.00020000099995728658)"
1969/12/31/21:22:32.360000,2677,1352,330000000,odom,base_link,0.00030470282167997884,-5.450757647724461e-08,0.0,0.0,0.0,-8.674587312126574e-05,0.9999999962375767,"(2.678782628867634, 7.202525341648582e-11, 0.0, 0.0, 0.0, 1.7494155586693307e-07, 7.202525341648906e-11, 2.6787830314885577, 0.0, 0.0, 0.0, 0.0009869304904871657, 0.0, 0.0, 0.0006003332741226983, 4.399995231751666e-23, -4.1093926569172254e-14, 0.0, 0.0, 0.0, 4.3999952317516664e-23, 0.0003003331816514375, 8.833240544310571e-33, 0.0, 0.0, 0.0, -4.109392656917226e-14, -8.83329197218842e-33, 0.0003003331816514375, 0.0, 1.7494155586693643e-07, 0.000986930490487194, 0.0, 0.0, 0.0, 3.213026724095247)",1.2333619277416946e-05,0.0,0.0,0.0,0.0,-1.0705865868837263e-07,"(0.0007599822620938621, 0.0, 0.0, 0.0, 0.0, 0.0, 0.0, 0.0007599822620938621, 0.0, 0.0, 0.0, 0.0, 0.0, 0.0, 0.0004003332278689839, 1.337910644490077e-31, -1.424590131724722e-22, 0.0, 0.0, 0.0, 1.3379106444900766e-31, 0.00010033277961720329, 8.445872179842282e-39, 0.0, 0.0, 0.0, -1.4245901317247209e-22, 7.999909566009224e-39, 0.00010033277961720329, 0.0, 0.0, 0.0, 0.0, 0.0, 0.0, 0.00020000099995728658)"
1969/12/31/21:22:32.360000,2678,1352,350000000,odom,base_link,0.00030494950650446716,-5.455037443370298e-08,0.0,0.0,0.0,-8.674746602710741e-05,0.9999999962374385,"(2.6797838283800965, 7.211068137510461e-11, 0.0, 0.0, 0.0, 1.750790796847463e-07, 7.21106813751079e-11, 2.6797842314881377, 0.0, 0.0, 0.0, 0.0009877231694292226, 0.0, 0.0, 0.0006004998418050262, 1.0892217140312732e-22, -6.163429068452602e-14, 0.0, 0.0, 0.0, 1.0892217140312734e-22, 0.0003004996338315856, -1.1092093998737695e-32, 0.0, 0.0, 0.0, -6.163429068452601e-14, 1.1091947061943843e-32, 0.0003004996338315856, 0.0, 1.750790796847497e-07, 0.000987723169429251, 0.0, 0.0, 0.0, 3.2142267340956465)",1.2334863542695502e-05,0.0,0.0,0.0,0.0,-1.7670099466040908e-07,"(0.001285357233286555, 0.0, 0.0, 0.0, 0.0, 0.0, 0.0, 0.001285357233286555, 0.0, 0.0, 0.0, 0.0, 0.0, 0.0, 0.0004004997377706763, 3.4421806281319e-31, -3.2010100445660285e-22, 0.0, 0.0, 0.0, 3.4421806281319e-31, 0.00010049875517274512, 2.10143597849779e-38, 0.0, 0.0, 0.0, -3.2010100445660275e-22, 2.1284379150886007e-38, 0.00010049875517274512, 0.0, 0.0, 0.0, 0.0, 0.0, 0.0, 0.00020000099995731992)"
1969/12/31/21:22:32.400000,2679,1352,370000000,odom,base_link,0.00030519620749437285,-5.459317597763879e-08,0.0,0.0,0.0,-8.67486839803261e-05,0.9999999962373329,"(2.6807835138713942, 7.219618509534963e-11, 0.0, 0.0, 0.0, 1.7521666883769508e-07, 7.219618509535292e-11, 2.6807839174669845, 0.0, 0.0, 0.0, 0.0009885162104548164, 0.0, 0.0, 0.0006003331818643033, 4.2823305238537424e-23, -4.107347471166485e-14, 0.0, 0.0, 0.0, 4.282330523853742e-23, 0.0003003329978219526, -3.2931382724214463e-32, 0.0, 0.0, 0.0, -4.107347471166485e-14, 3.2931382724214463e-32, 0.0003003329978219526, 0.0, 1.752166688376985e-07, 0.0009885162104548448, 0.0, 0.0, 0.0, 3.2154267440628215)",1.2335976245164093e-05,0.0,0.0,0.0,0.0,-1.0425992513300906e-07,"(0.000708053422828909, 0.0, 0.0, 0.0, 0.0, 0.0, 0.0, 0.000708053422828909, 0.0, 0.0, 0.0, 0.0, 0.0, 0.0, 0.0004003330897366635, 3.1899952557276945e-37, -1.8225186069809327e-28, 0.0, 0.0, 0.0, 3.189995255727694e-37, 0.00010033223673539186, 1.0359613297049277e-45, 0.0, 0.0, 0.0, -1.8225186069809327e-28, 3.436248640342237e-47, 0.00010033223673539186, 0.0, 0.0, 0.0, 0.0, 0.0, 0.0, 0.00020000099995727829)"
1969/12/31/21:22:32.400000,2680,1352,390000000,odom,base_link,0.00030544293944226135,-5.4635983352921676e-08,0.0,0.0,0.0,-8.674854264843498e-05,0.9999999962373451,"(2.68178465072623, 7.228176639250114e-11, 0.0, 0.0, 0.0, 1.7535432565978537e-07, 7.228176639250443e-11, 2.681785054809813, 0.0, 0.0, 0.0, 0.0009893096329813538, 0.0, 0.0, 0.0006004998418050102, -3.302704771247565e-23, -6.164606216428326e-14, 0.0, 0.0, 0.0, -3.3027047712475654e-23, 0.00030049963383145756, 2.0607778073993715e-32, 0.0, 0.0, 0.0, -6.164606216428327e-14, -2.0607836848711256e-32, 0.00030049963383145756, 0.0, 1.7535432565978878e-07, 0.0009893096329813822, 0.0, 0.0, 0.0, 3.2166267540632343)",1.2337218914773184e-05,0.0,0.0,0.0,0.0,5.359703486807641e-08,"(0.0012321233865996246, 0.0, 0.0, 0.0, 0.0, 0.0, 0.0, 0.0012321233865996246, 0.0, 0.0, 0.0, 0.0, 0.0, 0.0, 0.0004004997377706222, 3.35280928246497e-31, -3.2016291694774857e-22, 0.0, 0.0, 0.0, 3.3528092824649703e-31, 0.00010049875516938038, 2.0662182019137266e-38, 0.0, 0.0, 0.0, -3.2016291694774857e-22, 2.0554889355053002e-38, 0.00010049875516938038, 0.0, 0.0, 0.0, 0.0, 0.0, 0.0, 0.00020000099995731992)"
1969/12/31/21:22:32.450000,2681,1352,410000000,odom,base_link,0.00030568969206757815,-5.467879439377464e-08,0.0,0.0,0.0,-8.675099919153003e-05,0.9999999962371321,"(2.682784391844189, 7.236742340480257e-11, 0.0, 0.0, 0.0, 1.7549204647207844e-07, 7.236742340480586e-11, 2.6827847964162004, 0.0, 0.0, 0.0, 0.000990103422885268, 0.0, 0.0, 0.0006003331818643033, 1.4221730831309791e-22, -4.1081621886907435e-14, 0.0, 0.0, 0.0, 1.4221730831309794e-22, 0.0003003329978219526, 8.68310851803996e-32, 0.0, 0.0, 0.0, -4.1081621886907435e-14, -8.68310851803996e-32, 0.0003003329978219526, 0.0, 1.7549204647208185e-07, 0.0009901034228852964, 0.0, 0.0, 0.0, 3.2178267640304092)",1.2338422986119718e-05,0.0,0.0,0.0,0.0,-3.461824122461735e-07,"(0.0007048106843995084, 0.0, 0.0, 0.0, 0.0, 0.0, 0.0, 0.0007048106843995084, 0.0, 0.0, 0.0, 0.0, 0.0, 0.0, 0.0004003330897366635, -9.999628520718054e-38, -1.8228771673351612e-28, 0.0, 0.0, 0.0, -9.999628520718056e-38, 0.00010033223673539186, 1.8060913586157327e-47, 0.0, 0.0, 0.0, -1.8228771673351606e-28, -2.9538850403492353e-46, 0.00010033223673539186, 0.0, 0.0, 0.0, 0.0, 0.0, 0.0, 0.00020000099995727829)"
1969/12/31/21:22:32.450000,2682,1352,430000000,odom,base_link,0.00030593647294572624,-5.4721611615726444e-08,0.0,0.0,0.0,-8.675225810403916e-05,0.9999999962370228,"(2.683785515353033, 7.245315896681398e-11, 0.0, 0.0, 0.0, 1.7562983772061993e-07, 7.245315896681728e-11, 2.6837859204139174, 0.0, 0.0, 0.0, 0.0009908975950371848, 0.0, 0.0, 0.0006004998418050102, 3.239161626462333e-23, -6.165828653067942e-14, 0.0, 0.0, 0.0, 3.2391616264623335e-23, 0.00030049963383145756, 4.5307828141392077e-32, 0.0, 0.0, 0.0, -6.165828653067943e-14, -4.530812495371566e-32, 0.00030049963383145756, 0.0, 1.7562983772062335e-07, 0.0009908975950372132, 0.0, 0.0, 0.0, 3.2190267740308083)",1.233966520016152e-05,0.0,0.0,0.0,0.0,-5.246184264576992e-08,"(0.0012288029061180562, 0.0, 0.0, 0.0, 0.0, 0.0, 0.0, 0.0012288029061180562, 0.0, 0.0, 0.0, 0.0, 0.0, 0.0, 0.0004004997377706222, 1.1134803663136959e-30, -3.2022641411656984e-22, 0.0, 0.0, 0.0, 1.1134803663136954e-30, 0.00010049875516938037, 6.674422570648316e-38, 0.0, 0.0, 0.0, -3.2022641411656984e-22, 7.010696115663491e-38, 0.00010049875516938037, 0.0, 0.0, 0.0, 0.0, 0.0, 0.0, 0.00020000099995731992)"
1969/12/31/21:22:32.450000,2683,1352,450000000,odom,base_link,0.0003061832786681547,-5.4764433638257195e-08,0.0,0.0,0.0,-8.675338850500006e-05,0.9999999962369248,"(2.684787631085778, 7.25389716775112e-11, 0.0, 0.0, 0.0, 1.7576769580484154e-07, 7.253897167751452e-11, 2.6847880366359766, 0.0, 0.0, 0.0, 0.0009916921433104802, 0.0, 0.0, 0.0006004998418339193, 8.216398278164089e-23, -6.166451686888703e-14, 0.0, 0.0, 0.0, 8.21639827816409e-23, 0.0003004996339470317, 1.040104555527064e-31, 0.0, 0.0, 0.0, -6.166451686888704e-14, 9.320467671299849e-32, 0.0003004996339470317, 0.0, 1.7576769580484496e-07, 0.0009916921433105086, 0.0, 0.0, 0.0, 3.2202267840312078)",1.234090741420332e-05,0.0,0.0,0.0,0.0,-1.3323257858250616e-07,"(0.0017658244392736574, 0.0, 0.0, 0.0, 0.0, 0.0, 0.0, 0.0017658244392736574, 0.0, 0.0, 0.0, 0.0, 0.0, 0.0, 0.00040049973783566265, 1.6921911730532146e-31, -3.204172049762333e-22, 0.0, 0.0, 0.0, 1.6921911730532155e-31, 0.00010049875620060887, 1.0249393187607441e-38, 0.0, 0.0, 0.0, -3.2041720497623346e-22, 1.0539078089203641e-38, 0.00010049875620060887, 0.0, 0.0, 0.0, 0.0, 0.0, 0.0, 0.00020000099995731992)"
1969/12/31/21:22:32.500000,2684,1352,470000000,odom,base_link,0.00030643006268331297,-5.4807252345906554e-08,0.0,0.0,0.0,-8.67528272970336e-05,0.9999999962369734,"(2.6857863830041917, 7.262485602389825e-11, 0.0, 0.0, 0.0, 1.759056117476941e-07, 7.262485602390173e-11, 2.685786789044115, 0.0, 0.0, 0.0, 0.0009924870166842948, 0.0, 0.0, 0.0006004996339648284, -7.28749052237332e-23, -6.160280254016503e-14, 0.0, 0.0, 0.0, -7.287490522373319e-23, 0.00030049921918607535, -6.254914871902614e-32, 0.0, 0.0, 0.0, -6.160280254016503e-14, 6.254914871902614e-32, 0.00030049921918607535, 0.0, 1.759056117476975e-07, 0.0009924870166843232, 0.0, 0.0, 0.0, 3.221426793965379)",1.2341351719362513e-05,0.0,0.0,0.0,0.0,1.1829821356529324e-07,"(0.0009056981052916102, 0.0, 0.0, 0.0, 0.0, 0.0, 0.0, 0.0009056981052916102, 0.0, 0.0, 0.0, 0.0, 0.0, 0.0, 0.00040049942639219435, 6.727260275706728e-38, -5.198672132202822e-29, 0.0, 0.0, 0.0, 6.727260275706728e-38, 0.00010049752469171817, 3.2281442713165756e-46, 0.0, 0.0, 0.0, -5.198672132202821e-29, -2.003286242604069e-46, 0.00010049752469171817, 0.0, 0.0, 0.0, 0.0, 0.0, 0.0, 0.00020000099995730336)"
1969/12/31/21:22:32.500000,2685,1352,490000000,odom,base_link,0.0003066769020388507,-5.485008045065642e-08,0.0,0.0,0.0,-8.675439470760581e-05,0.9999999962368374,"(2.686787949969751, 7.271081684706909e-11, 0.0, 0.0, 0.0, 1.7604359220085323e-07, 7.271081684707257e-11, 2.6867883564998407, 0.0, 0.0, 0.0, 0.000993282265652919, 0.0, 0.0, 0.0006004998418338833, 1.531923382897073e-22, -6.167290769360695e-14, 0.0, 0.0, 0.0, 1.5319233828970728e-22, 0.00030049963394674305, 3.379540851340063e-31, 0.0, 0.0, 0.0, -6.167290769360694e-14, 5.647635572155611e-32, 0.00030049963394674305, 0.0, 1.7604359220085665e-07, 0.0009932822656529474, 0.0, 0.0, 0.0, 3.2226268039657775)",1.2342584205985947e-05,0.0,0.0,0.0,0.0,-2.4841959461912016e-07,"(0.0014346614174236836, 0.0, 0.0, 0.0, 0.0, 0.0, 0.0, 0.0014346614174236836, 0.0, 0.0, 0.0, 0.0, 0.0, 0.0, 0.0004004997378355408, -3.8161642251906037e-31, -3.204626668694968e-22, 0.0, 0.0, 0.0, -3.8161642251906024e-31, 0.000100498756192995, -2.3009126995803692e-38, 0.0, 0.0, 0.0, -3.204626668694967e-22, -2.3864872056933204e-38, 0.000100498756192995, 0.0, 0.0, 0.0, 0.0, 0.0, 0.0, 0.00020000099995731992)"
1969/12/31/21:22:32.510000,2686,1352,510000000,odom,base_link,0.0003069237571642986,-5.4892911948876154e-08,0.0,0.0,0.0,-8.675272259690909e-05,0.9999999962369825,"(2.6877873278905002, 7.279685393871718e-11, 0.0, 0.0, 0.0, 1.7618163817018172e-07, 7.279685393872067e-11, 2.687787734911191, 0.0, 0.0, 0.0, 0.0009940778800157806, 0.0, 0.0, 0.0006004996339648284, -1.8790577607417957e-22, -6.161430999072771e-14, 0.0, 0.0, 0.0, -1.8790577607417957e-22, 0.00030049921918607535, 1.4470515290890936e-31, 0.0, 0.0, 0.0, -6.16143099907277e-14, -1.4470515290890936e-31, 0.00030049921918607535, 0.0, 1.7618163817018514e-07, 0.000994077880015809, 0.0, 0.0, 0.0, 3.2238268138999486)",1.2343656546737095e-05,0.0,0.0,0.0,0.0,3.049713332686184e-07,"(0.0008863599543743227, 0.0, 0.0, 0.0, 0.0, 0.0, 0.0, 0.0008863599543743227, 0.0, 0.0, 0.0, 0.0, 0.0, 0.0, 0.00040049942639219435, 1.2665097550718768e-37, -5.199643651128595e-29, 0.0, 0.0, 0.0, 1.2665097550718768e-37, 0.00010049752469171817, -5.160182305541323e-46, 0.0, 0.0, 0.0, -5.199643651128595e-29, 6.904240064927481e-46, 0.00010049752469171817, 0.0, 0.0, 0.0, 0.0, 0.0, 0.0, 0.00020000099995730336)"
1969/12/31/21:22:32.530000,2687,1352,530000000,odom,base_link,0.0003071706425968235,-5.4935747874679426e-08,0.0,0.0,0.0,-8.675374235779096e-05,0.9999999962368941,"(2.6887887972895563, 7.288296696034739e-11, 0.0, 0.0, 0.0, 1.7631974662767353e-07, 7.288296696035085e-11, 2.6887892048012905, 0.0, 0.0, 0.0, 0.0009948738699618257, 0.0, 0.0, 0.0006004998418338833, 1.4653731301858735e-22, -6.168441731680221e-14, 0.0, 0.0, 0.0, 1.4653731301858728e-22, 0.00030049963394674305, 3.017227337667328e-31, 0.0, 0.0, 0.0, -6.16844173168022e-14, 2.8992309796329166e-31, 0.00030049963394674305, 0.0, 1.7631974662767694e-07, 0.0009948738699618541, 0.0, 0.0, 0.0, 3.2250268239003472)",1.2344887077387565e-05,0.0,0.0,0.0,0.0,-2.3762342360462134e-07,"(0.0014148662719853807, 0.0, 0.0, 0.0, 0.0, 0.0, 0.0, 0.0014148662719853807, 0.0, 0.0, 0.0, 0.0, 0.0, 0.0, 0.0004004997378355408, -9.83986112144012e-31, -3.205225012045222e-22, 0.0, 0.0, 0.0, -9.839861121440115e-31, 0.000100498756192995, -6.043077918748494e-38, 0.0, 0.0, 0.0, -3.205225012045221e-22, -6.048522284484899e-38, 0.000100498756192995, 0.0, 0.0, 0.0, 0.0, 0.0, 0.0, 0.00020000099995731992)"
1969/12/31/21:22:32.570000,2688,1352,550000000,odom,base_link,0.0003074175691255769,-5.497859180797088e-08,0.0,0.0,0.0,-8.67566214353664e-05,0.9999999962366443,"(2.689787923234215, 7.296915909999626e-11, 0.0, 0.0, 0.0, 1.7645792540437233e-07, 7.296915909999975e-11, 2.689788331237442, 0.0, 0.0, 0.0, 0.0009956702488842372, 0.0, 0.0, 0.0006003331817108255, 1.2611177401872458e-22, -4.110861767006693e-14, 0.0, 0.0, 0.0, 1.2611177401872458e-22, 0.00030033299721119014, 1.9498874651626045e-32, 0.0, 0.0, 0.0, -4.110861767006693e-14, -1.9498874651626045e-32, 0.00030033299721119014, 0.0, 1.7645792540437578e-07, 0.0009956702488842656, 0.0, 0.0, 0.0, 3.226226833834519)",1.2346563033945457e-05,0.0,0.0,0.0,0.0,-3.0677676221666537e-07,"(0.0006412311501719818, 0.0, 0.0, 0.0, 0.0, 0.0, 0.0, 0.0006412311501719818, 0.0, 0.0, 0.0, 0.0, 0.0, 0.0, 0.0004003330893921464, 5.397222943797924e-38, -2.3181232670909795e-29, 0.0, 0.0, 0.0, 5.397222943797922e-38, 0.00010033223137781579, 2.9115856472253626e-46, 0.0, 0.0, 0.0, -2.3181232670909797e-29, -2.3573188233578153e-46, 0.00010033223137781579, 0.0, 0.0, 0.0, 0.0, 0.0, 0.0, 0.00020000099995727005)"
1969/12/31/21:22:32.570000,2689,1352,570000000,odom,base_link,0.00030766451274288437,-5.5021439933749306e-08,0.0,0.0,0.0,-8.675675736570934e-05,0.9999999962366325,"(2.6907888956706536, 7.305543100098163e-11, 0.0, 0.0, 0.0, 1.7659617603256088e-07, 7.305543100098512e-11, 2.6907893041658264, 0.0, 0.0, 0.0, 0.0009964670190950127, 0.0, 0.0, 0.0006004998418050102, -5.187002064763229e-23, -6.16989382259872e-14, 0.0, 0.0, 0.0, -5.18700206476323e-23, 0.0003004996338314571, -1.1282588735760201e-32, 0.0, 0.0, 0.0, -6.16989382259872e-14, 1.1282377146777053e-32, 0.0003004996338314571, 0.0, 1.7659617603256435e-07, 0.000996467019095041, 0.0, 0.0, 0.0, 3.2274268438349174)",1.2347799068562048e-05,0.0,0.0,0.0,0.0,8.41335741217185e-08,"(0.0011636546607854113, 0.0, 0.0, 0.0, 0.0, 0.0, 0.0, 0.0011636546607854113, 0.0, 0.0, 0.0, 0.0, 0.0, 0.0, 0.0004004997377706221, 9.873846303711249e-31, -3.2043765602326824e-22, 0.0, 0.0, 0.0, 9.87384630371125e-31, 0.00010049875516934717, 5.9059969554935e-38, 0.0, 0.0, 0.0, -3.2043765602326824e-22, 6.23663821057959e-38, 0.00010049875516934717, 0.0, 0.0, 0.0, 0.0, 0.0, 0.0, 0.00020000099995731992)"
1969/12/31/21:22:32.620000,2690,1352,590000000,odom,base_link,0.0003079114963512363,-5.5064294882976854e-08,0.0,0.0,0.0,-8.675663728704953e-05,0.9999999962366429,"(2.691788768654237, 7.314178132006277e-11, 0.0, 0.0, 0.0, 1.767344941033455e-07, 7.314178132006621e-11, 2.6917891776418075, 0.0, 0.0, 0.0, 0.0009972641801382688, 0.0, 0.0, 0.0006003331818643033, 5.102140277394713e-24, -4.1118226980047136e-14, 0.0, 0.0, 0.0, 5.102140277394712e-24, 0.0003003329978219526, -1.3941234947632375e-33, 0.0, 0.0, 0.0, -4.1118226980047136e-14, 1.3941234947632375e-33, 0.0003003329978219526, 0.0, 1.7673449410334897e-07, 0.0009972641801382972, 0.0, 0.0, 0.0, 3.2286268538020924)",1.234941628573885e-05,0.0,0.0,0.0,0.0,-1.2408619622755098e-08,"(0.000700350782535697, 0.0, 0.0, 0.0, 0.0, 0.0, 0.0, 0.000700350782535697, 0.0, 0.0, 0.0, 0.0, 0.0, 0.0, 0.0004003330897366635, -1.5565135185677813e-37, -1.8244854055097734e-28, 0.0, 0.0, 0.0, -1.5565135185677817e-37, 0.00010033223673539186, 9.220298889081387e-46, 0.0, 0.0, 0.0, -1.8244854055097742e-28, -1.299252020334516e-45, 0.00010033223673539186, 0.0, 0.0, 0.0, 0.0, 0.0, 0.0, 0.00020000099995727829)"
1969/12/31/21:22:32.620000,2691,1352,610000000,odom,base_link,0.00030815850401808454,-5.51071539810967e-08,0.0,0.0,0.0,-8.675643712714273e-05,0.9999999962366602,"(2.6927891885638964, 7.322821034070708e-11, 0.0, 0.0, 0.0, 1.7687288014924433e-07, 7.322821034071049e-11, 2.692789598044317, 0.0, 0.0, 0.0, 0.000998061733417116, 0.0, 0.0, 0.0006003332741226911, -1.2683791546896869e-23, -4.115131614207356e-14, 0.0, 0.0, 0.0, -1.2683791546896867e-23, 0.0003003331816513806, -1.2965489631218745e-33, 0.0, 0.0, 0.0, -4.115131614207356e-14, 1.2965500651478284e-33, 0.0003003331816513806, 0.0, 1.768728801492478e-07, 0.0009980617334171447, 0.0, 0.0, 0.0, 3.2298268638024914)",1.2350843022128964e-05,0.0,0.0,0.0,0.0,3.0824050233551105e-08,"(0.0007476686916578704, 0.0, 0.0, 0.0, 0.0, 0.0, 0.0, 0.0007476686916578704, 0.0, 0.0, 0.0, 0.0, 0.0, 0.0, 0.00040033322786895987, 1.778021403447684e-32, -1.4265726951253313e-22, 0.0, 0.0, 0.0, 1.7780214034476848e-32, 0.00010033277961570535, 1.0409883683289445e-39, 0.0, 0.0, 0.0, -1.4265726951253318e-22, 1.1485148434007223e-39, 0.00010033277961570535, 0.0, 0.0, 0.0, 0.0, 0.0, 0.0, 0.00020000099995728658)"
1969/12/31/21:22:32.660000,2692,1352,630000000,odom,base_link,0.00030840553688683153,-5.515001737381219e-08,0.0,0.0,0.0,-8.675670289047339e-05,0.9999999962366373,"(2.693789612211277, 7.331471734370275e-11, 0.0, 0.0, 0.0, 1.7701133286606849e-07, 7.331471734370619e-11, 2.6937900221849973, 0.0, 0.0, 0.0, 0.0009988596723951694, 0.0, 0.0, 0.0006003332741363407, 1.8810347770251924e-23, -4.115577133538449e-14, 0.0, 0.0, 0.0, 1.8810347770251924e-23, 0.0003003331816582587, -1.019420292443766e-33, 0.0, 0.0, 0.0, -4.115577133538448e-14, 1.0194232311796431e-33, 0.0003003331816582587, 0.0, 1.7701133286607195e-07, 0.000998859672395198, 0.0, 0.0, 0.0, 3.2310268738029047)",1.2352180410971982e-05,0.0,0.0,0.0,0.0,-4.570953919350227e-08,"(0.0007599822566775503, 0.0, 0.0, 0.0, 0.0, 0.0, 0.0, 0.0007599822566775503, 0.0, 0.0, 0.0, 0.0, 0.0, 0.0, 0.0004003332278780788, -4.4172903107322213e-32, -1.4267342175212617e-22, 0.0, 0.0, 0.0, -4.4172903107322213e-32, 0.00010033277961947702, -2.7240883085169424e-39, 0.0, 0.0, 0.0, -1.4267342175212612e-22, -2.715107783717613e-39, 0.00010033277961947702, 0.0, 0.0, 0.0, 0.0, 0.0, 0.0, 0.00020000099996183405)"
1969/12/31/21:22:32.660000,2693,1352,650000000,odom,base_link,0.0003086525929333172,-5.519288504962295e-08,0.0,0.0,0.0,-8.675816558716751e-05,0.9999999962365104,"(2.694790811733335, 7.340130207688453e-11, 0.0, 0.0, 0.0, 1.7714985233951057e-07, 7.340130207688791e-11, 2.694791222200801, 0.0, 0.0, 0.0, 0.0009996579912406158, 0.0, 0.0, 0.0006004998418050262, 1.1098447394809272e-22, -6.172703821073985e-14, 0.0, 0.0, 0.0, 1.1098447394809272e-22, 0.0003004996338315856, -9.104605178439423e-32, 0.0, 0.0, 0.0, -6.172703821073983e-14, 9.104595186737441e-32, 0.0003004996338315856, 0.0, 1.7714985233951403e-07, 0.0009996579912406444, 0.0, 0.0, 0.0, 3.232226883803304)",1.2353424609527828e-05,0.0,0.0,0.0,0.0,-1.7978926664000145e-07,"(0.001285357219604317, 0.0, 0.0, 0.0, 0.0, 0.0, 0.0, 0.001285357219604317, 0.0, 0.0, 0.0, 0.0, 0.0, 0.0, 0.0004004997377706763, 1.4718743315955795e-31, -3.2058271891634487e-22, 0.0, 0.0, 0.0, 1.4718743315955802e-31, 0.00010049875517274514, 8.969074611363772e-39, 0.0, 0.0, 0.0, -3.2058271891634473e-22, 9.137589263425719e-39, 0.00010049875517274514, 0.0, 0.0, 0.0, 0.0, 0.0, 0.0, 0.00020000099995731992)"
1969/12/31/21:22:32.700000,2694,1352,670000000,odom,base_link,0.0003088996651420302,-5.523575620189471e-08,0.0,0.0,0.0,-8.675835050506692e-05,0.9999999962364943,"(2.6957904972151043, 7.348796314922395e-11, 0.0, 0.0, 0.0, 1.7728843695220785e-07, 7.348796314922752e-11, 2.6957909081767513, 0.0, 0.0, 0.0, 0.0010004566729788864, 0.0, 0.0, 0.0006003331818643033, -1.4256754061450665e-23, -4.113527630123202e-14, 0.0, 0.0, 0.0, -1.4256754061450665e-23, 0.0003003329978219526, -6.96165501241767e-33, 0.0, 0.0, 0.0, -4.113527630123202e-14, 6.96165501241767e-33, 0.0003003329978219526, 0.0, 1.7728843695221132e-07, 0.001000456672978915, 0.0, 0.0, 0.0, 3.233426893770479)",1.23545372034448e-05,0.0,0.0,0.0,0.0,3.465854413997554e-08,"(0.0007080534191515801, 0.0, 0.0, 0.0, 0.0, 0.0, 0.0, 0.0007080534191515801, 0.0, 0.0, 0.0, 0.0, 0.0, 0.0, 0.0004003330897366635, 3.250988262322727e-37, -1.825261062267512e-28, 0.0, 0.0, 0.0, 3.250988262322727e-37, 0.00010033223673539186, -1.068325387660043e-45, 0.0, 0.0, 0.0, -1.825261062267513e-28, 2.1397297752108054e-45, 0.00010033223673539186, 0.0, 0.0, 0.0, 0.0, 0.0, 0.0, 0.00020000099995727829)"
1969/12/31/21:22:32.700000,2695,1352,690000000,odom,base_link,0.0003091467683084027,-5.527863280275061e-08,0.0,0.0,0.0,-8.675942378469337e-05,0.9999999962364012,"(2.6967916340769187, 7.357470212436154e-11, 0.0, 0.0, 0.0, 1.7742708817006528e-07, 7.357470212436506e-11, 2.6967920455331953, 0.0, 0.0, 0.0, 0.0010012557371366203, 0.0, 0.0, 0.0006004998418050102, 9.547840764626322e-23, -6.173880881270129e-14, 0.0, 0.0, 0.0, 9.547840764626323e-23, 0.00030049963383145756, 3.6408933298852204e-32, 0.0, 0.0, 0.0, -6.173880881270129e-14, -3.640897444115448e-32, 0.00030049963383145756, 0.0, 1.7742708817006875e-07, 0.001001255737136649, 0.0, 0.0, 0.0, 3.234626903770878)",1.235577980581697e-05,0.0,0.0,0.0,0.0,-1.5465616828183243e-07,"(0.0012321233761057307, 0.0, 0.0, 0.0, 0.0, 0.0, 0.0, 0.0012321233761057307, 0.0, 0.0, 0.0, 0.0, 0.0, 0.0, 0.0004004997377706222, -1.116232571690367e-31, -3.20644627973154e-22, 0.0, 0.0, 0.0, -1.1162325716903672e-31, 0.00010049875516938037, -6.844234331049796e-39, 0.0, 0.0, 0.0, -3.20644627973154e-22, -6.893092935647473e-39, 0.00010049875516938037, 0.0, 0.0, 0.0, 0.0, 0.0, 0.0, 0.00020000099995731992)"
1969/12/31/21:22:32.750000,2696,1352,710000000,odom,base_link,0.00030939389214925967,-5.5321513724238585e-08,0.0,0.0,0.0,-8.676202615300654e-05,0.9999999962361754,"(2.6977913751879368, 7.366151815749303e-11, 0.0, 0.0, 0.0, 1.7756580565165336e-07, 7.366151815749655e-11, 2.6977917871392822, 0.0, 0.0, 0.0, 0.0010020551695102623, 0.0, 0.0, 0.0006003331818643033, 1.2194235975420565e-22, -4.114342290480131e-14, 0.0, 0.0, 0.0, 1.2194235975420563e-22, 0.0003003329978219526, -8.158068474482515e-32, 0.0, 0.0, 0.0, -4.114342290480131e-14, 8.158068474482515e-32, 0.0003003329978219526, 0.0, 1.7756580565165683e-07, 0.001002055169510291, 0.0, 0.0, 0.0, 3.235826913738053)",1.2356983772593944e-05,0.0,0.0,0.0,0.0,-2.9638332517465105e-07,"(0.000704810681148551, 0.0, 0.0, 0.0, 0.0, 0.0, 0.0, 0.000704810681148551, 0.0, 0.0, 0.0, 0.0, 0.0, 0.0, 0.0004003330897366635, 2.7934402145681605e-37, -1.8256195971019192e-28, 0.0, 0.0, 0.0, 2.7934402145681593e-37, 0.00010033223673539186, -1.566951051199506e-45, 0.0, 0.0, 0.0, -1.8256195971019205e-28, 2.434985250960229e-45, 0.00010033223673539186, 0.0, 0.0, 0.0, 0.0, 0.0, 0.0, 0.00020000099995727829)"
1969/12/31/21:22:32.750000,2697,1352,730000000,odom,base_link,0.0003096410442424537,-5.536440093937832e-08,0.0,0.0,0.0,-8.676517982720693e-05,0.9999999962359017,"(2.6987924987030825, 7.374841357394738e-11, 0.0, 0.0, 0.0, 1.7770459412347416e-07, 7.37484135739509e-11, 2.698792911149946, 0.0, 0.0, 0.0, 0.0010028549850539335, 0.0, 0.0, 0.0006004998418050102, 1.9868839865104002e-22, -6.175103231887968e-14, 0.0, 0.0, 0.0, 1.9868839865104007e-22, 0.00030049963383145756, -8.898867218422629e-32, 0.0, 0.0, 0.0, -6.17510323188797e-14, 8.898829602603402e-32, 0.00030049963383145756, 0.0, 1.7770459412347763e-07, 0.001002854985053962, 0.0, 0.0, 0.0, 3.237026923738452)",1.235822591893933e-05,0.0,0.0,0.0,0.0,-3.2169536894492625e-07,"(0.0012288028965761078, 0.0, 0.0, 0.0, 0.0, 0.0, 0.0, 0.0012288028965761078, 0.0, 0.0, 0.0, 0.0, 0.0, 0.0, 0.0004004997377706222, 9.54737839262718e-31, -3.2070812068740903e-22, 0.0, 0.0, 0.0, 9.54737839262718e-31, 0.00010049875516938037, 5.819595664235705e-38, 0.0, 0.0, 0.0, -3.2070812068740903e-22, 5.931060216421822e-38, 0.00010049875516938037, 0.0, 0.0, 0.0, 0.0, 0.0, 0.0, 0.00020000099995731992)"
1969/12/31/21:22:32.750000,2698,1352,750000000,odom,base_link,0.0003098882180661544,-5.5407293210248386e-08,0.0,0.0,0.0,-8.676488990428278e-05,0.999999996235927,"(2.6997922509739207, 7.383538682721836e-11, 0.0, 0.0, 0.0, 1.7784345087672214e-07, 7.383538682722184e-11, 2.699792663916742, 0.0, 0.0, 0.0, 0.0010036551701213794, 0.0, 0.0, 0.0006003331818643033, -5.976734411496552e-23, -4.1151638972289584e-14, 0.0, 0.0, 0.0, -5.976734411496553e-23, 0.0003003329978219526, 1.2897562110585945e-31, 0.0, 0.0, 0.0, -4.115163897228959e-14, -1.2897562110585945e-31, 0.0003003329978219526, 0.0, 1.778434508767256e-07, 0.001003655170121408, 0.0, 0.0, 0.0, 3.238226933705627)",1.2359451270901867e-05,0.0,0.0,0.0,0.0,1.4523743407243408e-07,"(0.0007046027124245409, 0.0, 0.0, 0.0, 0.0, 0.0, 0.0, 0.0007046027124245409, 0.0, 0.0, 0.0, 0.0, 0.0, 0.0, 0.0004003330897366635, 5.839412191315808e-37, -1.8259833772785264e-28, 0.0, 0.0, 0.0, 5.839412191315809e-37, 0.00010033223673539186, -3.268698274406906e-45, 0.0, 0.0, 0.0, -1.8259833772785258e-28, 5.264923128726584e-45, 0.00010033223673539186, 0.0, 0.0, 0.0, 0.0, 0.0, 0.0, 0.00020000099995727829)"
1969/12/31/21:22:32.800000,2699,1352,770000000,odom,base_link,0.00031013541950743233,-5.545019002818672e-08,0.0,0.0,0.0,-8.676568620516078e-05,0.9999999962358579,"(2.700793371252166, 7.392243793795241e-11, 0.0, 0.0, 0.0, 1.7798237337751926e-07, 7.392243793795588e-11, 2.700793784691395, 0.0, 0.0, 0.0, 0.0010044557386501077, 0.0, 0.0, 0.0006004998418050102, 9.545812632885029e-23, -6.176336140936276e-14, 0.0, 0.0, 0.0, 9.545812632885029e-23, 0.00030049963383145756, 6.802726867530676e-32, 0.0, 0.0, 0.0, -6.176336140936277e-14, -6.802722165553273e-32, 0.00030049963383145756, 0.0, 1.7798237337752273e-07, 0.0010044557386501363, 0.0, 0.0, 0.0, 3.239426943706026)",1.236069322910166e-05,0.0,0.0,0.0,0.0,-1.5458493028880392e-07,"(0.0012285908654613852, 0.0, 0.0, 0.0, 0.0, 0.0, 0.0, 0.0012285908654613852, 0.0, 0.0, 0.0, 0.0, 0.0, 0.0, 0.0004004997377706222, -4.679458969546786e-31, -3.2077215830910367e-22, 0.0, 0.0, 0.0, -4.679458969546787e-31, 0.00010049875516938037, -2.9123078939475065e-38, 0.0, 0.0, 0.0, -3.2077215830910353e-22, -2.8490533143473467e-38, 0.00010049875516938037, 0.0, 0.0, 0.0, 0.0, 0.0, 0.0, 0.00020000099995731992)"
1969/12/31/21:22:32.800000,2700,1352,790000000,odom,base_link,0.0003103826457878737,-5.5493092003332594e-08,0.0,0.0,0.0,-8.67704819179592e-05,0.9999999962354418,"(2.701795483562571, 7.400956735379784e-11, 0.0, 0.0, 0.0, 1.7812136406300433e-07, 7.400956735380127e-11, 2.701795897498654, 0.0, 0.0, 0.0, 0.0010052566842951448, 0.0, 0.0, 0.0006004998418339193, 3.631625109038253e-22, -6.176959050859352e-14, 0.0, 0.0, 0.0, 3.6316251090382536e-22, 0.0003004996339470317, 8.655020319299352e-31, 0.0, 0.0, 0.0, -6.176959050859352e-14, 7.122194023538962e-31, 0.0003004996339470317, 0.0, 1.781213640630078e-07, 0.0010052566842951736, 0.0, 0.0, 0.0, 3.2406269537064256)",1.2361935187301451e-05,0.0,0.0,0.0,0.0,-5.878986211154767e-07,"(0.001765608285104523, 0.0, 0.0, 0.0, 0.0, 0.0, 0.0, 0.001765608285104523, 0.0, 0.0, 0.0, 0.0, 0.0, 0.0, 0.00040049973783566265, 4.994604551896219e-31, -3.2096321272680318e-22, 0.0, 0.0, 0.0, 4.994604551896221e-31, 0.00010049875620060887, 3.190257907335079e-38, 0.0, 0.0, 0.0, -3.2096321272680318e-22, 2.9549322514404104e-38, 0.00010049875620060887, 0.0, 0.0, 0.0, 0.0, 0.0, 0.0, 0.00020000099995731992)"
1969/12/31/21:22:32.810000,2701,1352,810000000,odom,base_link,0.00031062985073977825,-5.553599273485252e-08,0.0,0.0,0.0,-8.67741940452595e-05,0.9999999962351196,"(2.702794239901612, 7.409677118843988e-11, 0.0, 0.0, 0.0, 1.78260419310656e-07, 7.409677118844331e-11, 2.702794654334963, 0.0, 0.0, 0.0, 0.0010060579560969758, 0.0, 0.0, 0.0006004996339648284, 1.8626757405576133e-22, -6.170779567688111e-14, 0.0, 0.0, 0.0, 1.8626757405576138e-22, 0.00030049921918607535, -8.438958157703179e-32, 0.0, 0.0, 0.0, -6.170779567688112e-14, 8.438958157703179e-32, 0.00030049921918607535, 0.0, 1.7826041931065947e-07, 0.0010060579560970046, 0.0, 0.0, 0.0, 3.2418269636405967)",1.2362385211374757e-05,0.0,0.0,0.0,0.0,-3.0185340398579397e-07,"(0.0009056875808276904, 0.0, 0.0, 0.0, 0.0, 0.0, 0.0, 0.0009056875808276904, 0.0, 0.0, 0.0, 0.0, 0.0, 0.0, 0.00040049942639219435, 3.021696401526873e-37, -5.207533003370969e-29, 0.0, 0.0, 0.0, 3.0216964015268725e-37, 0.00010049752469171817, 9.37429574040703e-47, 0.0, 0.0, 0.0, -5.207533003370967e-29, 4.285165428802427e-46, 0.00010049752469171817, 0.0, 0.0, 0.0, 0.0, 0.0, 0.0, 0.00020000099995730336)"
1969/12/31/21:22:32.830000,2702,1352,830000000,odom,base_link,0.00031087711076331544,-5.557890476407823e-08,0.0,0.0,0.0,-8.677814709790875e-05,0.9999999962347765,"(2.703795806150784, 7.418405425109605e-11, 0.0, 0.0, 0.0, 1.7839954555834114e-07, 7.418405425109951e-11, 2.7037962210818494, 0.0, 0.0, 0.0, 0.0010068596044894007, 0.0, 0.0, 0.0006004998418338833, 2.634946553423405e-22, -6.177800890349027e-14, 0.0, 0.0, 0.0, 2.6349465534234055e-22, 0.00030049963394674305, 5.932176675111135e-31, 0.0, 0.0, 0.0, -6.177800890349028e-14, 1.9564282628687552e-31, 0.00030049963394674305, 0.0, 1.783995455583446e-07, 0.0010068596044894296, 0.0, 0.0, 0.0, 3.2430269736409953)",1.236361751473279e-05,0.0,0.0,0.0,0.0,-4.2645547259167984e-07,"(0.001434650889939926, 0.0, 0.0, 0.0, 0.0, 0.0, 0.0, 0.001434650889939926, 0.0, 0.0, 0.0, 0.0, 0.0, 0.0, 0.0004004997378355408, 9.754038668777185e-31, -3.2100881989599973e-22, 0.0, 0.0, 0.0, 9.754038668777178e-31, 0.000100498756192995, 5.940840329169831e-38, 0.0, 0.0, 0.0, -3.210088198959995e-22, 6.065320953602676e-38, 0.000100498756192995, 0.0, 0.0, 0.0, 0.0, 0.0, 0.0, 0.00020000099995731992)"
1969/12/31/21:22:32.870000,2703,1352,850000000,odom,base_link,0.00031112440454905373,-5.562182443887554e-08,0.0,0.0,0.0,-8.677945905430724e-05,0.9999999962346627,"(2.7047948135591304, 7.42714171425865e-11, 0.0, 0.0, 0.0, 1.7853874377181375e-07, 7.42714171425899e-11, 2.7047952289883592, 0.0, 0.0, 0.0, 0.0010076616341670986, 0.0, 0.0, 0.0006003331817108255, 1.42858853725131e-23, -4.117050881963734e-14, 0.0, 0.0, 0.0, 1.42858853725131e-23, 0.00030033299721119014, -1.68891855409754e-33, 0.0, 0.0, 0.0, -4.117050881963734e-14, 1.68891855409754e-33, 0.00030033299721119014, 0.0, 1.7853874377181724e-07, 0.0010076616341671274, 0.0, 0.0, 0.0, 3.244226983575167)",1.2365150959174293e-05,0.0,0.0,0.0,0.0,-3.4698931712292657e-08,"(0.000641744594956236, 0.0, 0.0, 0.0, 0.0, 0.0, 0.0, 0.000641744594956236, 0.0, 0.0, 0.0, 0.0, 0.0, 0.0, 0.0004003330893921464, 9.755715055747148e-38, -2.3216166977306138e-29, 0.0, 0.0, 0.0, 9.755715055747158e-38, 0.00010033223137781579, 5.329474858630053e-46, 0.0, 0.0, 0.0, -2.3216166977306143e-29, -3.363164291616378e-46, 0.00010033223137781579, 0.0, 0.0, 0.0, 0.0, 0.0, 0.0, 0.00020000099995727005)"
1969/12/31/21:22:32.870000,2704,1352,870000000,odom,base_link,0.0003113717199249144,-5.566474831397113e-08,0.0,0.0,0.0,-8.678032320488131e-05,0.9999999962345878,"(2.7057958001883016, 7.435885970267544e-11, 0.0, 0.0, 0.0, 1.786780114433617e-07, 7.435885970267885e-11, 2.705796216116149, 0.0, 0.0, 0.0, 0.001008464055580622, 0.0, 0.0, 0.0006004998418050102, 6.4053879315777e-23, -6.179181989801347e-14, 0.0, 0.0, 0.0, 6.405387931577701e-23, 0.0003004996338314571, 1.3811523772232254e-32, 0.0, 0.0, 0.0, -6.179181989801347e-14, -1.3811591363157426e-32, 0.0003004996338314571, 0.0, 1.786780114433652e-07, 0.001008464055580651, 0.0, 0.0, 0.0, 3.2454269935755655)",1.2366386999403196e-05,0.0,0.0,0.0,0.0,-1.0365353694747546e-07,"(0.0011641758040976612, 0.0, 0.0, 0.0, 0.0, 0.0, 0.0, 0.0011641758040976612, 0.0, 0.0, 0.0, 0.0, 0.0, 0.0, 0.0004004997377706221, 1.1184931822179273e-31, -3.2092006743492493e-22, 0.0, 0.0, 0.0, 1.118493182217927e-31, 0.00010049875516934717, 6.920976933813797e-39, 0.0, 0.0, 0.0, -3.20920067434925e-22, 6.85604078355901e-39, 0.00010049875516934717, 0.0, 0.0, 0.0, 0.0, 0.0, 0.0, 0.00020000099995731992)"
1969/12/31/21:22:32.920000,2705,1352,890000000,odom,base_link,0.00031161907441683463,-5.570767952648594e-08,0.0,0.0,0.0,-8.678232551125674e-05,0.9999999962344139,"(2.7067956628535, 7.44463819522754e-11, 0.0, 0.0, 0.0, 1.7881734869602868e-07, 7.444638195227887e-11, 2.7067960792804215, 0.0, 0.0, 0.0, 0.0010092668676390472, 0.0, 0.0, 0.0006003331818643033, 9.605211222087743e-23, -4.118004915083792e-14, 0.0, 0.0, 0.0, 9.605211222087744e-23, 0.0003003329978219526, -3.48315655311456e-32, 0.0, 0.0, 0.0, -4.118004915083793e-14, 3.48315655311456e-32, 0.0003003329978219526, 0.0, 1.7881734869603217e-07, 0.001009266867639076, 0.0, 0.0, 0.0, 3.2466270035427542)",1.236798337923777e-05,0.0,0.0,0.0,0.0,-2.3324895794372467e-07,"(0.0007003850771518839, 0.0, 0.0, 0.0, 0.0, 0.0, 0.0, 0.0007003850771518839, 0.0, 0.0, 0.0, 0.0, 0.0, 0.0, 0.0004003330897366635, 1.8658110528351603e-37, -1.8272296197440635e-28, 0.0, 0.0, 0.0, 1.8658110528351615e-37, 0.00010033223673539188, 5.431579983371463e-46, 0.0, 0.0, 0.0, -1.8272296197440633e-28, 7.307173952553118e-47, 0.00010033223673539188, 0.0, 0.0, 0.0, 0.0, 0.0, 0.0, 0.00020000099995727829)"
1969/12/31/21:22:32.920000,2706,1352,910000000,odom,base_link,0.00031186645331164777,-5.575061578724886e-08,0.0,0.0,0.0,-8.678150946973109e-05,0.9999999962344848,"(2.70779608306143, 7.453398444806036e-11, 0.0, 0.0, 0.0, 1.789567567803239e-07, 7.45339844480638e-11, 2.7077964999878823, 0.0, 0.0, 0.0, 0.0010100700726011827, 0.0, 0.0, 0.0006003332741226911, -7.687135060962189e-23, -4.121316859480907e-14, 0.0, 0.0, 0.0, -7.687135060962188e-23, 0.0003003331816513806, -1.1150079371822233e-31, 0.0, 0.0, 0.0, -4.121316859480907e-14, 1.1150074375971242e-31, 0.0003003331816513806, 0.0, 1.789567567803274e-07, 0.0010100700726012116, 0.0, 0.0, 0.0, 3.2478270135431533)",1.2369406405592201e-05,0.0,0.0,0.0,0.0,1.8655379169085296e-07,"(0.0007476772987510275, 0.0, 0.0, 0.0, 0.0, 0.0, 0.0, 0.0007476772987510275, 0.0, 0.0, 0.0, 0.0, 0.0, 0.0, 0.00040033322786895987, 3.3472309291803123e-31, -1.4287174568583338e-22, 0.0, 0.0, 0.0, 3.347230929180312e-31, 0.00010033277961570535, 2.0937098359930903e-38, 0.0, 0.0, 0.0, -1.4287174568583335e-22, 2.0336650994304848e-38, 0.00010033277961570535, 0.0, 0.0, 0.0, 0.0, 0.0, 0.0, 0.00020000099995728658)"
1969/12/31/21:22:32.960000,2707,1352,930000000,odom,base_link,0.0003121138573850094,-5.5793555934266955e-08,0.0,0.0,0.0,-8.678182048115125e-05,0.9999999962344578,"(2.7087965067883113, 7.462166522014862e-11, 0.0, 0.0, 0.0, 1.7909623036801455e-07, 7.462166522015209e-11, 2.708796924214748, 0.0, 0.0, 0.0, 0.0010108736640201956, 0.0, 0.0, 0.0006003332741226983, 4.271210939105374e-23, -4.121761715583709e-14, 0.0, 0.0, 0.0, 4.271210939105374e-23, 0.0003003331816514375, -2.9598105805876423e-32, 0.0, 0.0, 0.0, -4.1217617155837086e-14, 2.9598152825650456e-32, 0.0003003331816514375, 0.0, 1.7909623036801805e-07, 0.0010108736640202245, 0.0, 0.0, 0.0, 3.2490270235435528)",1.23707417991777e-05,0.0,0.0,0.0,0.0,-1.0365181943034548e-07,"(0.0007599841729293806, 0.0, 0.0, 0.0, 0.0, 0.0, 0.0, 0.0007599841729293806, 0.0, 0.0, 0.0, 0.0, 0.0, 0.0, 0.0004003332278689839, -2.677453810664863e-31, -1.4288785444183335e-22, 0.0, 0.0, 0.0, -2.6774538106648603e-31, 0.00010033277961720329, -1.6634534589083845e-38, 0.0, 0.0, 0.0, -1.428878544418333e-22, -1.6381507936687335e-38, 0.00010033277961720329, 0.0, 0.0, 0.0, 0.0, 0.0, 0.0, 0.00020000099995728658)"
1969/12/31/21:22:32.960000,2708,1352,950000000,odom,base_link,0.00031236128465610147,-5.583650043596171e-08,0.0,0.0,0.0,-8.678279553964013e-05,0.9999999962343732,"(2.709797707327768, 7.470942450205745e-11, 0.0, 0.0, 0.0, 1.792357710984596e-07, 7.470942450206095e-11, 2.709798125254639, 0.0, 0.0, 0.0, 0.00101167763614162, 0.0, 0.0, 0.0006004998418050262, 5.90248193071383e-23, -6.181978607909375e-14, 0.0, 0.0, 0.0, 5.902481930713832e-23, 0.0003004996338315856, -3.1480502786348894e-32, 0.0, 0.0, 0.0, -6.181978607909377e-14, 3.148038523691381e-32, 0.0003004996338315856, 0.0, 1.792357710984631e-07, 0.0010116776361416488, 0.0, 0.0, 0.0, 3.2502270335439523)",1.237198568273667e-05,0.0,0.0,0.0,0.0,-9.545721984533418e-08,"(0.001285358812980174, 0.0, 0.0, 0.0, 0.0, 0.0, 0.0, 0.001285358812980174, 0.0, 0.0, 0.0, 0.0, 0.0, 0.0, 0.0004004997377706763, 3.3426596476302014e-31, -3.210644383632092e-22, 0.0, 0.0, 0.0, 3.3426596476302014e-31, 0.00010049875517274512, 2.0689079628868237e-38, 0.0, 0.0, 0.0, -3.2106443836320903e-22, 2.0493897345433962e-38, 0.00010049875517274512, 0.0, 0.0, 0.0, 0.0, 0.0, 0.0, 0.00020000099995731992)"
1969/12/31/21:22:33.000000,2709,1352,970000000,odom,base_link,0.0003126087280330852,-5.587944834668451e-08,0.0,0.0,0.0,-8.678541307682763e-05,0.999999996234146,"(2.7107973919244475, 7.479726075886123e-11, 0.0, 0.0, 0.0, 1.7937537693691388e-07, 7.479726075886476e-11, 2.7107978103521924, 0.0, 0.0, 0.0, 0.0010124819718962364, 0.0, 0.0, 0.0006003331818643033, 1.310463722040987e-22, -4.1197074270371366e-14, 0.0, 0.0, 0.0, 1.3104637220409872e-22, 0.0003003329978219526, -1.7859056615948497e-31, 0.0, 0.0, 0.0, -4.119707427037136e-14, 1.7859056615948497e-31, 0.0003003329978219526, 0.0, 1.7937537693691737e-07, 0.0010124819718962653, 0.0, 0.0, 0.0, 3.251427043511127)",1.2373097009542763e-05,0.0,0.0,0.0,0.0,-3.1809613665619747e-07,"(0.0007080534409734708, 0.0, 0.0, 0.0, 0.0, 0.0, 0.0, 0.0007080534409734708, 0.0, 0.0, 0.0, 0.0, 0.0, 0.0, 0.0004003330897366635, 1.717204347982579e-37, -1.828003403819502e-28, 0.0, 0.0, 0.0, 1.7172043479825803e-37, 0.00010033223673539186, 5.847882562955469e-46, 0.0, 0.0, 0.0, -1.828003403819503e-28, 1.8386267777719942e-47, 0.00010033223673539186, 0.0, 0.0, 0.0, 0.0, 0.0, 0.0, 0.00020000099995727829)"
1969/12/31/21:22:33.000000,2710,1352,990000000,odom,base_link,0.00031285620239230525,-5.592240276901362e-08,0.0,0.0,0.0,-8.678494834718473e-05,0.9999999962341863,"(2.711798529070832, 7.488517670820126e-11, 0.0, 0.0, 0.0, 1.795150529942157e-07, 7.488517670820479e-11, 2.7117989479999025, 0.0, 0.0, 0.0, 0.0010132866909657887, 0.0, 0.0, 0.0006004998418050102, -1.0383247811628643e-22, -6.18315487317471e-14, 0.0, 0.0, 0.0, -1.0383247811628643e-22, 0.00030049963383145756, -9.685378733614313e-32, 0.0, 0.0, 0.0, -6.18315487317471e-14, 9.685360513451875e-32, 0.00030049963383145756, 0.0, 1.795150529942192e-07, 0.0010132866909658175, 0.0, 0.0, 0.0, 3.2526270535115263)",1.237433928526607e-05,0.0,0.0,0.0,0.0,1.6799437928685974e-07,"(0.0012321232969903055, 0.0, 0.0, 0.0, 0.0, 0.0, 0.0, 0.0012321232969903055, 0.0, 0.0, 0.0, 0.0, 0.0, 0.0, 0.0004004997377706222, 1.0260173201453682e-30, -3.2112630742394648e-22, 0.0, 0.0, 0.0, 1.0260173201453682e-30, 0.00010049875516938037, 6.412102998326944e-38, 0.0, 0.0, 0.0, -3.2112630742394648e-22, 6.231907504254686e-38, 0.00010049875516938037, 0.0, 0.0, 0.0, 0.0, 0.0, 0.0, 0.00020000099995731992)"
1969/12/31/21:22:33.050000,2711,1353,10000000,odom,base_link,0.0003131036974256939,-5.596536037510645e-08,0.0,0.0,0.0,-8.678480140225841e-05,0.9999999962341991,"(2.7127982699380473, 7.497316927287271e-11, 0.0, 0.0, 0.0, 1.796547917907762e-07, 7.497316927287627e-11, 2.7127986893688867, 0.0, 0.0, 0.0, 0.001014091779081661, 0.0, 0.0, 0.0006003331818643033, 1.5127245389524745e-23, -4.120521918746456e-14, 0.0, 0.0, 0.0, 1.5127245389524748e-23, 0.0003003329978219526, -5.9420048327681464e-33, 0.0, 0.0, 0.0, -4.1205219187464556e-14, 5.9420048327681464e-33, 0.0003003329978219526, 0.0, 1.796547917907797e-07, 0.0010140917790816897, 0.0, 0.0, 0.0, 3.253827063478701)",1.23755430726435e-05,0.0,0.0,0.0,0.0,-3.671227319804155e-08,"(0.0007048106533909548, 0.0, 0.0, 0.0, 0.0, 0.0, 0.0, 0.0007048106533909548, 0.0, 0.0, 0.0, 0.0, 0.0, 0.0, 0.0004003330897366635, -3.090268681414946e-37, -1.8283618217854972e-28, 0.0, 0.0, 0.0, -3.0902686814149448e-37, 0.00010033223673539186, 1.2774298116761337e-45, 0.0, 0.0, 0.0, -1.8283618217854977e-28, -2.1417529749032165e-45, 0.00010033223673539186, 0.0, 0.0, 0.0, 0.0, 0.0, 0.0, 0.00020000099995727829)"
1969/12/31/21:22:33.050000,2712,1353,30000000,odom,base_link,0.0003133512207016332,-5.6008322920289966e-08,0.0,0.0,0.0,-8.678495730091431e-05,0.9999999962341856,"(2.713799393558632, 7.506124058289453e-11, 0.0, 0.0, 0.0, 1.797945973723209e-07, 7.506124058289809e-11, 2.713799813491694, 0.0, 0.0, 0.0, 0.0010148972512758361, 0.0, 0.0, 0.0006004998418050102, 5.2918588120141345e-24, -6.184376971605556e-14, 0.0, 0.0, 0.0, 5.2918588120141345e-24, 0.00030049963383145756, 3.388642748179518e-33, 0.0, 0.0, 0.0, -6.184376971605557e-14, -3.388675808958135e-33, 0.00030049963383145756, 0.0, 1.797945973723244e-07, 0.001014897251275865, 0.0, 0.0, 0.0, 3.2550270734791003)",1.237678489415307e-05,0.0,0.0,0.0,0.0,-8.549156924335837e-09,"(0.0012288028313927096, 0.0, 0.0, 0.0, 0.0, 0.0, 0.0, 0.0012288028313927096, 0.0, 0.0, 0.0, 0.0, 0.0, 0.0, 0.0004004997377706222, 1.184386399069288e-31, -3.2118978701649386e-22, 0.0, 0.0, 0.0, 1.184386399069288e-31, 0.00010049875516938037, 7.215325411470578e-39, 0.0, 0.0, 0.0, -3.2118978701649414e-22, 7.383467027719678e-39, 0.00010049875516938037, 0.0, 0.0, 0.0, 0.0, 0.0, 0.0, 0.00020000099995731992)"
1969/12/31/21:22:33.050000,2713,1353,50000000,odom,base_link,0.00031359876881400226,-5.605128990266775e-08,0.0,0.0,0.0,-8.67858497137677e-05,0.9999999962341082,"(2.714801509430905, 7.514939009174889e-11, 0.0, 0.0, 0.0, 1.7993446895388015e-07, 7.514939009175239e-11, 2.714801929866638, 0.0, 0.0, 0.0, 0.0010157031013511202, 0.0, 0.0, 0.0006004998418339193, 7.183264103568762e-23, -6.184999816243932e-14, 0.0, 0.0, 0.0, 7.183264103568762e-23, 0.0003004996339470317, 1.484304328109224e-31, 0.0, 0.0, 0.0, -6.184999816243932e-14, 1.4739235668844712e-31, 0.0003004996339470317, 0.0, 1.7993446895388364e-07, 0.001015703101351149, 0.0, 0.0, 0.0, 3.2562270834794997)",1.2378026715662638e-05,0.0,0.0,0.0,0.0,-1.1613830330847676e-07,"(0.001765824308554573, 0.0, 0.0, 0.0, 0.0, 0.0, 0.0, 0.001765824308554573, 0.0, 0.0, 0.0, 0.0, 0.0, 0.0, 0.00040049973783566265, 2.76585960127258e-32, -3.2138104465493238e-22, 0.0, 0.0, 0.0, 2.7658596012725803e-32, 0.00010049875620060887, 1.6828703495187163e-39, 0.0, 0.0, 0.0, -3.2138104465493256e-22, 1.7247429984001453e-39, 0.00010049875620060887, 0.0, 0.0, 0.0, 0.0, 0.0, 0.0, 0.00020000099995731992)"
1969/12/31/21:22:33.090000,2714,1353,70000000,odom,base_link,0.0003138462952453687,-5.609425348224333e-08,0.0,0.0,0.0,-8.678522388956038e-05,0.9999999962341625,"(2.715800261163512, 7.52376124332653e-11, 0.0, 0.0, 0.0, 1.8007439834826386e-07, 7.52376124332689e-11, 2.7158006821023335, 0.0, 0.0, 0.0, 0.0010165092777553938, 0.0, 0.0, 0.0006004996339648284, -7.492669297841743e-23, -6.178809258984413e-14, 0.0, 0.0, 0.0, -7.492669297841743e-23, 0.00030049921918607535, -2.646320086016159e-32, 0.0, 0.0, 0.0, -6.178809258984413e-14, 2.646320086016159e-32, 0.00030049921918607535, 0.0, 1.8007439834826735e-07, 0.0010165092777554227, 0.0, 0.0, 0.0, 3.257427093413671)",1.2378471242453777e-05,0.0,0.0,0.0,0.0,1.2126412301041722e-07,"(0.0009056980802173894, 0.0, 0.0, 0.0, 0.0, 0.0, 0.0, 0.0009056980802173894, 0.0, 0.0, 0.0, 0.0, 0.0, 0.0, 0.00040049942639219435, 5.863793355095567e-38, -5.214309656521029e-29, 0.0, 0.0, 0.0, 5.863793355095568e-38, 0.00010049752469171817, 2.3289372108088567e-48, 0.0, 0.0, 0.0, -5.214309656521028e-29, 9.676901628542976e-47, 0.00010049752469171817, 0.0, 0.0, 0.0, 0.0, 0.0, 0.0, 0.00020000099995730336)"
1969/12/31/21:22:33.090000,2715,1353,90000000,odom,base_link,0.00031409387698750404,-5.613722629137192e-08,0.0,0.0,0.0,-8.678504015524822e-05,0.9999999962341783,"(2.7168018282025033, 7.532591248397639e-11, 0.0, 0.0, 0.0, 1.802143920333555e-07, 7.532591248398006e-11, 2.716802249644863, 0.0, 0.0, 0.0, 0.001017315831507669, 0.0, 0.0, 0.0006004998418338833, 9.834043312029457e-24, -6.185838816110208e-14, 0.0, 0.0, 0.0, 9.834043312029454e-24, 0.00030049963394674305, 2.2985888001705653e-32, 0.0, 0.0, 0.0, -6.185838816110208e-14, 1.6661056525791854e-33, 0.00030049963394674305, 0.0, 1.8021439203335898e-07, 0.001017315831507698, 0.0, 0.0, 0.0, 3.2586271034140695)",1.2379703344045316e-05,0.0,0.0,0.0,0.0,-1.5923009443336524e-08,"(0.0014346613625347195, 0.0, 0.0, 0.0, 0.0, 0.0, 0.0, 0.0014346613625347195, 0.0, 0.0, 0.0, 0.0, 0.0, 0.0, 0.0004004997378355408, -3.923606513636751e-31, -3.2142650737125837e-22, 0.0, 0.0, 0.0, -3.9236065136367496e-31, 0.000100498756192995, -2.2880479900704507e-38, 0.0, 0.0, 0.0, -3.2142650737125823e-22, -2.5450323338841623e-38, 0.000100498756192995, 0.0, 0.0, 0.0, 0.0, 0.0, 0.0, 0.00020000099995731992)"
