time,.header.seq,.header.stamp.secs,.header.stamp.nsecs,.header.frame_id,.child_frame_id,.pose.pose.position.x,.pose.pose.position.y,.pose.pose.position.z,.pose.pose.orientation.x,.pose.pose.orientation.y,.pose.pose.orientation.z,.pose.pose.orientation.w,.pose.covariance,.twist.twist.linear.x,.twist.twist.linear.y,.twist.twist.linear.z,.twist.twist.angular.x,.twist.twist.angular.y,.twist.twist.angular.z,.twist.covariance
1969/12/31/21:22:32.070000,0,1352,70000000,world,base_link,0.0009621490950666781,-0.0006121603379488083,0.18228074209623352,1.2357055650819538e-05,1.0125293001014942e-05,-7.0608443678222275e-06,0.999999999847463,"(0.0001, 0.0, 0.0, 0.0, 0.0, 0.0, 0.0, 0.0001, 0.0, 0.0, 0.0, 0.0, 0.0, 0.0, 0.0001, 0.0, 0.0, 0.0, 0.0, 0.0, 0.0, 0.0001, 0.0, 0.0, 0.0, 0.0, 0.0, 0.0, 0.0001, 0.0, 0.0, 0.0, 0.0, 0.0, 0.0, 0.0001)",-0.013697695339705945,0.013202184515109225,0.009299468214141968,-0.007703928504080272,0.004133408499239903,-0.0019202064756872628,"(0.0001, 0.0, 0.0, 0.0, 0.0, 0.0, 0.0, 0.0001, 0.0, 0.0, 0.0, 0.0, 0.0, 0.0, 0.0001, 0.0, 0.0, 0.0, 0.0, 0.0, 0.0, 0.0001, 0.0, 0.0, 0.0, 0.0, 0.0, 0.0, 0.0001, 0.0, 0.0, 0.0, 0.0, 0.0, 0.0, 0.0001)"
1969/12/31/21:22:32.090000,1,1352,90000000,world,base_link,0.0009623961829231559,-0.0006121558535143873,0.18228074179357764,1.2356872496908526e-05,1.0124768526447539e-05,-7.057814165578175e-06,0.9999999998474921,"(0.0001, 0.0, 0.0, 0.0, 0.0, 0.0, 0.0, 0.0001, 0.0, 0.0, 0.0, 0.0, 0.0, 0.0, 0.0001, 0.0, 0.0, 0.0, 0.0, 0.0, 0.0, 0.0001, 0.0, 0.0, 0.0, 0.0, 0.0, 0.0, 0.0001, 0.0, 0.0, 0.0, 0.0, 0.0, 0.0, 0.0001)",0.005459394928995233,0.0009822312924345539,0.005045332647739289,-0.0013868356063103085,0.0072201707445171005,0.008433889363887786,"(0.0001, 0.0, 0.0, 0.0, 0.0, 0.0, 0.0, 0.0001, 0.0, 0.0, 0.0, 0.0, 0.0, 0.0, 0.0001, 0.0, 0.0, 0.0, 0.0, 0.0, 0.0, 0.0001, 0.0, 0.0, 0.0, 0.0, 0.0, 0.0, 0.0001, 0.0, 0.0, 0.0, 0.0, 0.0, 0.0, 0.0001)"
1969/12/31/21:22:32.110000,2,1352,110000000,world,base_link,0.0009626432953205911,-0.0006121513689835295,0.18228074149095794,1.2356689365986758e-05,1.012424411650824e-05,-7.054784166447486e-06,0.999999999847521,"(0.0001, 0.0, 0.0, 0.0, 0.0, 0.0, 0.0, 0.0001, 0.0, 0.0, 0.0, 0.0, 0.0, 0.0, 0.0001, 0.0, 0.0, 0.0, 0.0, 0.0, 0.0, 0.0001, 0.0, 0.0, 0.0, 0.0, 0.0, 0.0, 0.0001, 0.0, 0.0, 0.0, 0.0, 0.0, 0.0, 0.0001)",0.005504460729517631,-0.010103828253760074,0.000720670052694443,0.011255604913359125,0.006728452544097408,-0.009648142284218305,"(0.0001, 0.0, 0.0, 0.0, 0.0, 0.0, 0.0, 0.0001, 0.0, 0.0, 0.0, 0.0, 0.0, 0.0, 0.0001, 0.0, 0.0, 0.0, 0.0, 0.0, 0.0, 0.0001, 0.0, 0.0, 0.0, 0.0, 0.0, 0.0, 0.0001, 0.0, 0.0, 0.0, 0.0, 0.0, 0.0, 0.0001)"
1969/12/31/21:22:32.130000,3,1352,130000000,world,base_link,0.0009628904322590453,-0.0006121468843561934,0.18228074118837434,1.2356506258111775e-05,1.0123719771222612e-05,-7.051754370383762e-06,0.9999999998475501,"(0.0001, 0.0, 0.0, 0.0, 0.0, 0.0, 0.0, 0.0001, 0.0, 0.0, 0.0, 0.0, 0.0, 0.0, 0.0001, 0.0, 0.0, 0.0, 0.0, 0.0, 0.0, 0.0001, 0.0, 0.0, 0.0, 0.0, 0.0, 0.0, 0.0001, 0.0, 0.0, 0.0, 0.0, 0.0, 0.0, 0.0001)",0.01753917192976078,0.007063153555969529,-0.004249752987261446,-0.003722782627271032,-0.004566908700927033,-0.008257511648111806,"(0.0001, 0.0, 0.0, 0.0, 0.0, 0.0, 0.0, 0.0001, 0.0, 0.0, 0.0, 0.0, 0.0, 0.0, 0.0001, 0.0, 0.0, 0.0, 0.0, 0.0, 0.0, 0.0001, 0.0, 0.0, 0.0, 0.0, 0.0, 0.0, 0.0001, 0.0, 0.0, 0.0, 0.0, 0.0, 0.0, 0.0001)"
1969/12/31/21:22:32.150000,4,1352,150000000,world,base_link,0.0009631375937385466,-0.0006121423996324898,0.18228074088582696,1.2356323173288845e-05,1.0123195490534689e-05,-7.048724777371442e-06,0.9999999998475789,"(0.0001, 0.0, 0.0, 0.0, 0.0, 0.0, 0.0, 0.0001, 0.0, 0.0, 0.0, 0.0, 0.0, 0.0, 0.0001, 0.0, 0.0, 0.0, 0.0, 0.0, 0.0, 0.0001, 0.0, 0.0, 0.0, 0.0, 0.0, 0.0, 0.0001, 0.0, 0.0, 0.0, 0.0, 0.0, 0.0, 0.0001)",-0.022631422407030102,-0.013072527308146302,0.004126568935034636,0.005246788258455528,0.0030703027749637434,-0.007575646310629123,"(0.0001, 0.0, 0.0, 0.0, 0.0, 0.0, 0.0, 0.0001, 0.0, 0.0, 0.0, 0.0, 0.0, 0.0, 0.0001, 0.0, 0.0, 0.0, 0.0, 0.0, 0.0, 0.0001, 0.0, 0.0, 0.0, 0.0, 0.0, 0.0, 0.0001, 0.0, 0.0, 0.0, 0.0, 0.0, 0.0, 0.0001)"
1969/12/31/21:22:32.170000,5,1352,170000000,world,base_link,0.0009633847797591472,-0.0006121379148122524,0.18228074058331567,1.235614011144143e-05,1.0122671274467418e-05,-7.045695387382132e-06,0.9999999998476078,"(0.0001, 0.0, 0.0, 0.0, 0.0, 0.0, 0.0, 0.0001, 0.0, 0.0, 0.0, 0.0, 0.0, 0.0, 0.0001, 0.0, 0.0, 0.0, 0.0, 0.0, 0.0, 0.0001, 0.0, 0.0, 0.0, 0.0, 0.0, 0.0, 0.0001, 0.0, 0.0, 0.0, 0.0, 0.0, 0.0, 0.0001)",-0.0036868350759962365,0.0008958568046668518,0.010046548181373004,0.005726302431229288,0.005651106781670418,-0.008043443704184092,"(0.0001, 0.0, 0.0, 0.0, 0.0, 0.0, 0.0, 0.0001, 0.0, 0.0, 0.0, 0.0, 0.0, 0.0, 0.0001, 0.0, 0.0, 0.0, 0.0, 0.0, 0.0, 0.0001, 0.0, 0.0, 0.0, 0.0, 0.0, 0.0, 0.0001, 0.0, 0.0, 0.0, 0.0, 0.0, 0.0, 0.0001)"
1969/12/31/21:22:32.190000,6,1352,190000000,world,base_link,0.0009636319903209068,-0.0006121334298956199,0.18228074028084051,1.2355957072653503e-05,1.0122147123044312e-05,-7.042666200402854e-06,0.9999999998476367,"(0.0001, 0.0, 0.0, 0.0, 0.0, 0.0, 0.0, 0.0001, 0.0, 0.0, 0.0, 0.0, 0.0, 0.0, 0.0001, 0.0, 0.0, 0.0, 0.0, 0.0, 0.0, 0.0001, 0.0, 0.0, 0.0, 0.0, 0.0, 0.0, 0.0001, 0.0, 0.0, 0.0, 0.0, 0.0, 0.0, 0.0001)",-0.010533666379229397,0.01122153880465786,-0.001280018621482563,-0.009419395269286816,0.00496689482471379,0.0005998198779270098,"(0.0001, 0.0, 0.0, 0.0, 0.0, 0.0, 0.0, 0.0001, 0.0, 0.0, 0.0, 0.0, 0.0, 0.0, 0.0001, 0.0, 0.0, 0.0, 0.0, 0.0, 0.0, 0.0001, 0.0, 0.0, 0.0, 0.0, 0.0, 0.0, 0.0001, 0.0, 0.0, 0.0, 0.0, 0.0, 0.0, 0.0001)"
1969/12/31/21:22:32.210000,7,1352,210000000,world,base_link,0.0009638792254238607,-0.0006121289448825507,0.1822807399784015,1.2355774056839014e-05,1.0121623036186543e-05,-7.039637216398538e-06,0.9999999998476655,"(0.0001, 0.0, 0.0, 0.0, 0.0, 0.0, 0.0, 0.0001, 0.0, 0.0, 0.0, 0.0, 0.0, 0.0, 0.0001, 0.0, 0.0, 0.0, 0.0, 0.0, 0.0, 0.0001, 0.0, 0.0, 0.0, 0.0, 0.0, 0.0, 0.0001, 0.0, 0.0, 0.0, 0.0, 0.0, 0.0, 0.0001)",-0.010413482400366464,-0.0006505134959948783,-0.00831190563305841,-0.003439265953346733,-0.017664042300076267,0.01180603921426737,"(0.0001, 0.0, 0.0, 0.0, 0.0, 0.0, 0.0, 0.0001, 0.0, 0.0, 0.0, 0.0, 0.0, 0.0, 0.0001, 0.0, 0.0, 0.0, 0.0, 0.0, 0.0, 0.0001, 0.0, 0.0, 0.0, 0.0, 0.0, 0.0, 0.0001, 0.0, 0.0, 0.0, 0.0, 0.0, 0.0, 0.0001)"
1969/12/31/21:22:32.230000,8,1352,230000000,world,base_link,0.00096412648506807,-0.0006121244597731001,0.18228073967599862,1.2355591064077798e-05,1.0121099013961023e-05,-7.0366084353473935e-06,0.9999999998476944,"(0.0001, 0.0, 0.0, 0.0, 0.0, 0.0, 0.0, 0.0001, 0.0, 0.0, 0.0, 0.0, 0.0, 0.0, 0.0001, 0.0, 0.0, 0.0, 0.0, 0.0, 0.0, 0.0001, 0.0, 0.0, 0.0, 0.0, 0.0, 0.0, 0.0001, 0.0, 0.0, 0.0, 0.0, 0.0, 0.0, 0.0001)",0.010132208347532258,0.01120323961909709,0.0023614997416834802,0.001041743678994055,-0.009205674980035236,-0.00426484627864618,"(0.0001, 0.0, 0.0, 0.0, 0.0, 0.0, 0.0, 0.0001, 0.0, 0.0, 0.0, 0.0, 0.0, 0.0, 0.0001, 0.0, 0.0, 0.0, 0.0, 0.0, 0.0, 0.0001, 0.0, 0.0, 0.0, 0.0, 0.0, 0.0, 0.0001, 0.0, 0.0, 0.0, 0.0, 0.0, 0.0, 0.0001)"
1969/12/31/21:22:32.270000,9,1352,250000000,world,base_link,0.0009643737692535907,-0.0006121199745672407,0.18228073937363184,1.2355408094302298e-05,1.0120575056292923e-05,-7.0335798572225104e-06,0.9999999998477233,"(0.0001, 0.0, 0.0, 0.0, 0.0, 0.0, 0.0, 0.0001, 0.0, 0.0, 0.0, 0.0, 0.0, 0.0, 0.0001, 0.0, 0.0, 0.0, 0.0, 0.0, 0.0, 0.0001, 0.0, 0.0, 0.0, 0.0, 0.0, 0.0, 0.0001, 0.0, 0.0, 0.0, 0.0, 0.0, 0.0, 0.0001)",-0.002876176477454224,0.01157306066203828,0.002853231068882919,-0.01014365396126987,0.010637109671169627,-0.004821222964675279,"(0.0001, 0.0, 0.0, 0.0, 0.0, 0.0, 0.0, 0.0001, 0.0, 0.0, 0.0, 0.0, 0.0, 0.0, 0.0001, 0.0, 0.0, 0.0, 0.0, 0.0, 0.0, 0.0001, 0.0, 0.0, 0.0, 0.0, 0.0, 0.0, 0.0001, 0.0, 0.0, 0.0, 0.0, 0.0, 0.0, 0.0001)"
1969/12/31/21:22:32.270000,10,1352,270000000,world,base_link,0.0009646210779804408,-0.0006121154892649999,0.1822807390713012,1.2355225147559512e-05,1.0120051163208926e-05,-7.030551481997981e-06,0.9999999998477523,"(0.0001, 0.0, 0.0, 0.0, 0.0, 0.0, 0.0, 0.0001, 0.0, 0.0, 0.0, 0.0, 0.0, 0.0, 0.0001, 0.0, 0.0, 0.0, 0.0, 0.0, 0.0, 0.0001, 0.0, 0.0, 0.0, 0.0, 0.0, 0.0, 0.0001, 0.0, 0.0, 0.0, 0.0, 0.0, 0.0, 0.0001)",0.007090261946062375,-0.008324900037344677,-0.002480057122740048,-0.018829147672528693,0.013552836987435502,-0.006801265374937914,"(0.0001, 0.0, 0.0, 0.0, 0.0, 0.0, 0.0, 0.0001, 0.0, 0.0, 0.0, 0.0, 0.0, 0.0, 0.0001, 0.0, 0.0, 0.0, 0.0, 0.0, 0.0, 0.0001, 0.0, 0.0, 0.0, 0.0, 0.0, 0.0, 0.0001, 0.0, 0.0, 0.0, 0.0, 0.0, 0.0, 0.0001)"
1969/12/31/21:22:32.320000,11,1352,290000000,world,base_link,0.0009648684112486987,-0.0006121110038664335,0.1822807387690067,1.23550422237948e-05,1.0119527334770568e-05,-7.0275233096545665e-06,0.999999999847781,"(0.0001, 0.0, 0.0, 0.0, 0.0, 0.0, 0.0, 0.0001, 0.0, 0.0, 0.0, 0.0, 0.0, 0.0, 0.0001, 0.0, 0.0, 0.0, 0.0, 0.0, 0.0, 0.0001, 0.0, 0.0, 0.0, 0.0, 0.0, 0.0, 0.0001, 0.0, 0.0, 0.0, 0.0, 0.0, 0.0, 0.0001)",0.010949128951167859,-0.008830480894828048,0.005616378058298908,0.003101277829183101,0.004391595809528449,0.008547283641267866,"(0.0001, 0.0, 0.0, 0.0, 0.0, 0.0, 0.0, 0.0001, 0.0, 0.0, 0.0, 0.0, 0.0, 0.0, 0.0001, 0.0, 0.0, 0.0, 0.0, 0.0, 0.0, 0.0001, 0.0, 0.0, 0.0, 0.0, 0.0, 0.0, 0.0001, 0.0, 0.0, 0.0, 0.0, 0.0, 0.0, 0.0001)"
1969/12/31/21:22:32.320000,12,1352,310000000,world,base_link,0.000965115769058385,-0.0006121065183714719,0.18228073846674825,1.2354859323046801e-05,1.0119003570823402e-05,-7.0244953401750214e-06,0.9999999998478099,"(0.0001, 0.0, 0.0, 0.0, 0.0, 0.0, 0.0, 0.0001, 0.0, 0.0, 0.0, 0.0, 0.0, 0.0, 0.0001, 0.0, 0.0, 0.0, 0.0, 0.0, 0.0, 0.0001, 0.0, 0.0, 0.0, 0.0, 0.0, 0.0, 0.0001, 0.0, 0.0, 0.0, 0.0, 0.0, 0.0, 0.0001)",-0.008983402985465948,-0.016159648013434152,-0.0008250452774050663,-0.0014422131808846624,-0.01167669022064486,0.005375979583911139,"(0.0001, 0.0, 0.0, 0.0, 0.0, 0.0, 0.0, 0.0001, 0.0, 0.0, 0.0, 0.0, 0.0, 0.0, 0.0001, 0.0, 0.0, 0.0, 0.0, 0.0, 0.0, 0.0001, 0.0, 0.0, 0.0, 0.0, 0.0, 0.0, 0.0001, 0.0, 0.0, 0.0, 0.0, 0.0, 0.0, 0.0001)"
1969/12/31/21:22:32.360000,13,1352,330000000,world,base_link,0.0009653631514095761,-0.000612102032780143,0.18228073816452595,1.2354676445287602e-05,1.0118479871472301e-05,-7.021467573519637e-06,0.9999999998478387,"(0.0001, 0.0, 0.0, 0.0, 0.0, 0.0, 0.0, 0.0001, 0.0, 0.0, 0.0, 0.0, 0.0, 0.0, 0.0001, 0.0, 0.0, 0.0, 0.0, 0.0, 0.0, 0.0001, 0.0, 0.0, 0.0, 0.0, 0.0, 0.0, 0.0001, 0.0, 0.0, 0.0, 0.0, 0.0, 0.0, 0.0001)",0.0014836935698792715,-0.004699078916151727,-0.022612864490367007,-0.00037404882629936057,0.023402633641986467,0.007209197318253144,"(0.0001, 0.0, 0.0, 0.0, 0.0, 0.0, 0.0, 0.0001, 0.0, 0.0, 0.0, 0.0, 0.0, 0.0, 0.0001, 0.0, 0.0, 0.0, 0.0, 0.0, 0.0, 0.0001, 0.0, 0.0, 0.0, 0.0, 0.0, 0.0, 0.0001, 0.0, 0.0, 0.0, 0.0, 0.0, 0.0, 0.0001)"
1969/12/31/21:22:32.360000,14,1352,350000000,world,base_link,0.0009656105583022978,-0.0006120975470925022,0.18228073786233973,1.2354493590528448e-05,1.011795623662237e-05,-7.018440009655707e-06,0.9999999998478676,"(0.0001, 0.0, 0.0, 0.0, 0.0, 0.0, 0.0, 0.0001, 0.0, 0.0, 0.0, 0.0, 0.0, 0.0, 0.0001, 0.0, 0.0, 0.0, 0.0, 0.0, 0.0, 0.0001, 0.0, 0.0, 0.0, 0.0, 0.0, 0.0, 0.0001, 0.0, 0.0, 0.0, 0.0, 0.0, 0.0, 0.0001)",-0.0010020031100856342,-0.0017190670900255256,-0.003370527520414237,-0.001453052908496087,-0.015952050651904578,-0.0020369583906072477,"(0.0001, 0.0, 0.0, 0.0, 0.0, 0.0, 0.0, 0.0001, 0.0, 0.0, 0.0, 0.0, 0.0, 0.0, 0.0001, 0.0, 0.0, 0.0, 0.0, 0.0, 0.0, 0.0001, 0.0, 0.0, 0.0, 0.0, 0.0, 0.0, 0.0001, 0.0, 0.0, 0.0, 0.0, 0.0, 0.0, 0.0001)"
1969/12/31/21:22:32.400000,15,1352,370000000,world,base_link,0.0009658579897366428,-0.0006120930613085218,0.18228073756018962,1.2354310758775042e-05,1.0117432666375998e-05,-7.0154126485795416e-06,0.9999999998478963,"(0.0001, 0.0, 0.0, 0.0, 0.0, 0.0, 0.0, 0.0001, 0.0, 0.0, 0.0, 0.0, 0.0, 0.0, 0.0001, 0.0, 0.0, 0.0, 0.0, 0.0, 0.0, 0.0001, 0.0, 0.0, 0.0, 0.0, 0.0, 0.0, 0.0001, 0.0, 0.0, 0.0, 0.0, 0.0, 0.0, 0.0001)",0.011100885113410956,0.009916956316718399,0.00280254583336339,-0.015678137552632646,0.005773304186749253,-0.0037410948204779615,"(0.0001, 0.0, 0.0, 0.0, 0.0, 0.0, 0.0, 0.0001, 0.0, 0.0, 0.0, 0.0, 0.0, 0.0, 0.0001, 0.0, 0.0, 0.0, 0.0, 0.0, 0.0, 0.0001, 0.0, 0.0, 0.0, 0.0, 0.0, 0.0, 0.0001, 0.0, 0.0, 0.0, 0.0, 0.0, 0.0, 0.0001)"
1969/12/31/21:22:32.400000,16,1352,390000000,world,base_link,0.0009661054457126286,-0.0006120885754282296,0.18228073725807561,1.235412794998453e-05,1.0116909160661992e-05,-7.01238549025109e-06,0.9999999998479251,"(0.0001, 0.0, 0.0, 0.0, 0.0, 0.0, 0.0, 0.0001, 0.0, 0.0, 0.0, 0.0, 0.0, 0.0, 0.0001, 0.0, 0.0, 0.0, 0.0, 0.0, 0.0, 0.0001, 0.0, 0.0, 0.0, 0.0, 0.0, 0.0, 0.0001, 0.0, 0.0, 0.0, 0.0, 0.0, 0.0, 0.0001)",-0.009376461903917388,-0.0010217901956157025,0.0083724985700809,0.000753773907699596,-0.013642046385655719,0.0002494965048369864,"(0.0001, 0.0, 0.0, 0.0, 0.0, 0.0, 0.0, 0.0001, 0.0, 0.0, 0.0, 0.0, 0.0, 0.0, 0.0001, 0.0, 0.0, 0.0, 0.0, 0.0, 0.0, 0.0001, 0.0, 0.0, 0.0, 0.0, 0.0, 0.0, 0.0001, 0.0, 0.0, 0.0, 0.0, 0.0, 0.0, 0.0001)"
1969/12/31/21:22:32.450000,17,1352,410000000,world,base_link,0.0009663529262303025,-0.0006120840894516671,0.1822807369559977,1.2353945164171804e-05,1.0116385719466901e-05,-7.009358534657135e-06,0.999999999847954,"(0.0001, 0.0, 0.0, 0.0, 0.0, 0.0, 0.0, 0.0001, 0.0, 0.0, 0.0, 0.0, 0.0, 0.0, 0.0001, 0.0, 0.0, 0.0, 0.0, 0.0, 0.0, 0.0001, 0.0, 0.0, 0.0, 0.0, 0.0, 0.0, 0.0001, 0.0, 0.0, 0.0, 0.0, 0.0, 0.0, 0.0001)",0.008955724788845995,0.013723762066414609,-0.00687122866898514,-0.0011888598831678225,0.01564494606243221,0.00026113308629806167,"(0.0001, 0.0, 0.0, 0.0, 0.0, 0.0, 0.0, 0.0001, 0.0, 0.0, 0.0, 0.0, 0.0, 0.0, 0.0001, 0.0, 0.0, 0.0, 0.0, 0.0, 0.0, 0.0001, 0.0, 0.0, 0.0, 0.0, 0.0, 0.0, 0.0001, 0.0, 0.0, 0.0, 0.0, 0.0, 0.0, 0.0001)"
1969/12/31/21:22:32.450000,18,1352,430000000,world,base_link,0.0009666004312897378,-0.0006120796033788206,0.18228073665395586,1.2353762401363174e-05,1.0115862342773819e-05,-7.006331781752112e-06,0.9999999998479826,"(0.0001, 0.0, 0.0, 0.0, 0.0, 0.0, 0.0, 0.0001, 0.0, 0.0, 0.0, 0.0, 0.0, 0.0, 0.0001, 0.0, 0.0, 0.0, 0.0, 0.0, 0.0, 0.0001, 0.0, 0.0, 0.0, 0.0, 0.0, 0.0, 0.0001, 0.0, 0.0, 0.0, 0.0, 0.0, 0.0, 0.0001)",-0.0023324783137903906,0.008035531250484328,0.010529769839072079,0.01511584363894709,0.008754077272509708,-0.011294950167304597,"(0.0001, 0.0, 0.0, 0.0, 0.0, 0.0, 0.0, 0.0001, 0.0, 0.0, 0.0, 0.0, 0.0, 0.0, 0.0001, 0.0, 0.0, 0.0, 0.0, 0.0, 0.0, 0.0001, 0.0, 0.0, 0.0, 0.0, 0.0, 0.0, 0.0001, 0.0, 0.0, 0.0, 0.0, 0.0, 0.0, 0.0001)"
1969/12/31/21:22:32.450000,19,1352,450000000,world,base_link,0.0009668479608909814,-0.0006120751172096622,0.18228073635195008,1.235357966151149e-05,1.011533903066044e-05,-7.003305231524328e-06,0.9999999998480114,"(0.0001, 0.0, 0.0, 0.0, 0.0, 0.0, 0.0, 0.0001, 0.0, 0.0, 0.0, 0.0, 0.0, 0.0, 0.0001, 0.0, 0.0, 0.0, 0.0, 0.0, 0.0, 0.0001, 0.0, 0.0, 0.0, 0.0, 0.0, 0.0, 0.0001, 0.0, 0.0, 0.0, 0.0, 0.0, 0.0, 0.0001)",0.010310935895089121,0.0029611824536604882,0.0012268537979094407,-0.005241298923832986,0.0063177026612369885,-0.0013885990036386,"(0.0001, 0.0, 0.0, 0.0, 0.0, 0.0, 0.0, 0.0001, 0.0, 0.0, 0.0, 0.0, 0.0, 0.0, 0.0001, 0.0, 0.0, 0.0, 0.0, 0.0, 0.0, 0.0001, 0.0, 0.0, 0.0, 0.0, 0.0, 0.0, 0.0001, 0.0, 0.0, 0.0, 0.0, 0.0, 0.0, 0.0001)"
1969/12/31/21:22:32.490000,20,1352,470000000,world,base_link,0.0009670955150340629,-0.0006120706309442614,0.18228073604998038,1.2353396944683828e-05,1.0114815782964998e-05,-7.000278883930216e-06,0.9999999998480402,"(0.0001, 0.0, 0.0, 0.0, 0.0, 0.0, 0.0, 0.0001, 0.0, 0.0, 0.0, 0.0, 0.0, 0.0, 0.0001, 0.0, 0.0, 0.0, 0.0, 0.0, 0.0, 0.0001, 0.0, 0.0, 0.0, 0.0, 0.0, 0.0, 0.0001, 0.0, 0.0, 0.0, 0.0, 0.0, 0.0, 0.0001)",0.007119328286321373,-0.0014092853795226869,0.021340043752025882,0.0009311958755520858,0.001763907443585586,0.012039981223160984,"(0.0001, 0.0, 0.0, 0.0, 0.0, 0.0, 0.0, 0.0001, 0.0, 0.0, 0.0, 0.0, 0.0, 0.0, 0.0001, 0.0, 0.0, 0.0, 0.0, 0.0, 0.0, 0.0001, 0.0, 0.0, 0.0, 0.0, 0.0, 0.0, 0.0001, 0.0, 0.0, 0.0, 0.0, 0.0, 0.0, 0.0001)"
1969/12/31/21:22:32.490000,21,1352,490000000,world,base_link,0.0009673430937190618,-0.000612066144582632,0.18228073574804676,1.2353214250776097e-05,1.0114292599837675e-05,-6.997252738988427e-06,0.9999999998480689,"(0.0001, 0.0, 0.0, 0.0, 0.0, 0.0, 0.0, 0.0001, 0.0, 0.0, 0.0, 0.0, 0.0, 0.0, 0.0001, 0.0, 0.0, 0.0, 0.0, 0.0, 0.0, 0.0001, 0.0, 0.0, 0.0, 0.0, 0.0, 0.0, 0.0001, 0.0, 0.0, 0.0, 0.0, 0.0, 0.0, 0.0001)",-0.0009675518242275689,0.004551777282988084,0.005747858906273549,0.01485981199870569,-0.009753550974632314,0.011080478358021992,"(0.0001, 0.0, 0.0, 0.0, 0.0, 0.0, 0.0, 0.0001, 0.0, 0.0, 0.0, 0.0, 0.0, 0.0, 0.0001, 0.0, 0.0, 0.0, 0.0, 0.0, 0.0, 0.0001, 0.0, 0.0, 0.0, 0.0, 0.0, 0.0, 0.0001, 0.0, 0.0, 0.0, 0.0, 0.0, 0.0, 0.0001)"
1969/12/31/21:22:32.510000,22,1352,510000000,world,base_link,0.000967590696946011,-0.0006120616581247323,0.18228073544614923,1.2353031579882388e-05,1.0113769481197106e-05,-6.994226796625329e-06,0.9999999998480975,"(0.0001, 0.0, 0.0, 0.0, 0.0, 0.0, 0.0, 0.0001, 0.0, 0.0, 0.0, 0.0, 0.0, 0.0, 0.0001, 0.0, 0.0, 0.0, 0.0, 0.0, 0.0, 0.0001, 0.0, 0.0, 0.0, 0.0, 0.0, 0.0, 0.0001, 0.0, 0.0, 0.0, 0.0, 0.0, 0.0, 0.0001)",-0.01017165870162374,0.006323224967323527,-0.008182553864840555,0.0030391638290683644,0.009502197176450377,0.01874642257475254,"(0.0001, 0.0, 0.0, 0.0, 0.0, 0.0, 0.0, 0.0001, 0.0, 0.0, 0.0, 0.0, 0.0, 0.0, 0.0001, 0.0, 0.0, 0.0, 0.0, 0.0, 0.0, 0.0001, 0.0, 0.0, 0.0, 0.0, 0.0, 0.0, 0.0001, 0.0, 0.0, 0.0, 0.0, 0.0, 0.0, 0.0001)"
1969/12/31/21:22:32.530000,23,1352,530000000,world,base_link,0.000967838324714969,-0.0006120571715705903,0.18228073514428775,1.2352848931926798e-05,1.0113246427056942e-05,-6.991201056834979e-06,0.9999999998481264,"(0.0001, 0.0, 0.0, 0.0, 0.0, 0.0, 0.0, 0.0001, 0.0, 0.0, 0.0, 0.0, 0.0, 0.0, 0.0001, 0.0, 0.0, 0.0, 0.0, 0.0, 0.0, 0.0001, 0.0, 0.0, 0.0, 0.0, 0.0, 0.0, 0.0001, 0.0, 0.0, 0.0, 0.0, 0.0, 0.0, 0.0001)",-0.0005351836201712773,0.004898996868694263,0.0011572160843922518,0.0031093194691709384,0.012353235896627096,-0.0003012475516601616,"(0.0001, 0.0, 0.0, 0.0, 0.0, 0.0, 0.0, 0.0001, 0.0, 0.0, 0.0, 0.0, 0.0, 0.0, 0.0001, 0.0, 0.0, 0.0, 0.0, 0.0, 0.0, 0.0001, 0.0, 0.0, 0.0, 0.0, 0.0, 0.0, 0.0001, 0.0, 0.0, 0.0, 0.0, 0.0, 0.0, 0.0001)"
1969/12/31/21:22:32.570000,24,1352,550000000,world,base_link,0.0009680859770259916,-0.0006120526849202473,0.18228073484246235,1.2352666306931143e-05,1.0112723437393288e-05,-6.988175519595655e-06,0.999999999848155,"(0.0001, 0.0, 0.0, 0.0, 0.0, 0.0, 0.0, 0.0001, 0.0, 0.0, 0.0, 0.0, 0.0, 0.0, 0.0001, 0.0, 0.0, 0.0, 0.0, 0.0, 0.0, 0.0001, 0.0, 0.0, 0.0, 0.0, 0.0, 0.0, 0.0001, 0.0, 0.0, 0.0, 0.0, 0.0, 0.0, 0.0001)",-0.003362542287677761,0.007335457342541521,0.013145846648428688,-0.009709850120151839,0.005354365255757787,-0.001121782326186599,"(0.0001, 0.0, 0.0, 0.0, 0.0, 0.0, 0.0, 0.0001, 0.0, 0.0, 0.0, 0.0, 0.0, 0.0, 0.0001, 0.0, 0.0, 0.0, 0.0, 0.0, 0.0, 0.0001, 0.0, 0.0, 0.0, 0.0, 0.0, 0.0, 0.0001, 0.0, 0.0, 0.0, 0.0, 0.0, 0.0, 0.0001)"
1969/12/31/21:22:32.570000,25,1352,570000000,world,base_link,0.0009683336538791165,-0.0006120481981737314,0.18228073454067303,1.2352483704934457e-05,1.0112200512222591e-05,-6.985150184877895e-06,0.9999999998481837,"(0.0001, 0.0, 0.0, 0.0, 0.0, 0.0, 0.0, 0.0001, 0.0, 0.0, 0.0, 0.0, 0.0, 0.0, 0.0001, 0.0, 0.0, 0.0, 0.0, 0.0, 0.0, 0.0001, 0.0, 0.0, 0.0, 0.0, 0.0, 0.0, 0.0001, 0.0, 0.0, 0.0, 0.0, 0.0, 0.0, 0.0001)",0.0009103091114094007,0.01523026111891519,0.03500124595481089,0.016959652391534328,-0.017688567177955302,0.015402074594709013,"(0.0001, 0.0, 0.0, 0.0, 0.0, 0.0, 0.0, 0.0001, 0.0, 0.0, 0.0, 0.0, 0.0, 0.0, 0.0001, 0.0, 0.0, 0.0, 0.0, 0.0, 0.0, 0.0001, 0.0, 0.0, 0.0, 0.0, 0.0, 0.0, 0.0001, 0.0, 0.0, 0.0, 0.0, 0.0, 0.0, 0.0001)"
1969/12/31/21:22:32.620000,26,1352,590000000,world,base_link,0.0009685813552744072,-0.000612043711330959,0.18228073423891966,1.2352301125876414e-05,1.0111677651537517e-05,-6.9821250526631915e-06,0.9999999998482123,"(0.0001, 0.0, 0.0, 0.0, 0.0, 0.0, 0.0, 0.0001, 0.0, 0.0, 0.0, 0.0, 0.0, 0.0, 0.0001, 0.0, 0.0, 0.0, 0.0, 0.0, 0.0, 0.0001, 0.0, 0.0, 0.0, 0.0, 0.0, 0.0, 0.0001, 0.0, 0.0, 0.0, 0.0, 0.0, 0.0, 0.0001)",-0.012068199814712221,-0.004281538056091747,-0.019551425765727427,0.013441384815097277,-0.014673351594695749,-0.005582909034657904,"(0.0001, 0.0, 0.0, 0.0, 0.0, 0.0, 0.0, 0.0001, 0.0, 0.0, 0.0, 0.0, 0.0, 0.0, 0.0001, 0.0, 0.0, 0.0, 0.0, 0.0, 0.0, 0.0001, 0.0, 0.0, 0.0, 0.0, 0.0, 0.0, 0.0001, 0.0, 0.0, 0.0, 0.0, 0.0, 0.0, 0.0001)"
1969/12/31/21:22:32.620000,27,1352,610000000,world,base_link,0.000968829081211917,-0.0006120392243920553,0.1822807339372024,1.2352118569768573e-05,1.0111154855278376e-05,-6.97910012292521e-06,0.999999999848241,"(0.0001, 0.0, 0.0, 0.0, 0.0, 0.0, 0.0, 0.0001, 0.0, 0.0, 0.0, 0.0, 0.0, 0.0, 0.0001, 0.0, 0.0, 0.0, 0.0, 0.0, 0.0, 0.0001, 0.0, 0.0, 0.0, 0.0, 0.0, 0.0, 0.0001, 0.0, 0.0, 0.0, 0.0, 0.0, 0.0, 0.0001)",-0.003298036855697801,0.00826203916563288,0.0010725344101505478,-0.004263277944109741,0.002682435846035678,0.0009514622634548024,"(0.0001, 0.0, 0.0, 0.0, 0.0, 0.0, 0.0, 0.0001, 0.0, 0.0, 0.0, 0.0, 0.0, 0.0, 0.0001, 0.0, 0.0, 0.0, 0.0, 0.0, 0.0, 0.0001, 0.0, 0.0, 0.0, 0.0, 0.0, 0.0, 0.0001, 0.0, 0.0, 0.0, 0.0, 0.0, 0.0, 0.0001)"
1969/12/31/21:22:32.660000,28,1352,630000000,world,base_link,0.000969076831691694,-0.0006120347373569507,0.18228073363552116,1.2351936036617178e-05,1.0110632123470351e-05,-6.976075395627696e-06,0.9999999998482696,"(0.0001, 0.0, 0.0, 0.0, 0.0, 0.0, 0.0, 0.0001, 0.0, 0.0, 0.0, 0.0, 0.0, 0.0, 0.0001, 0.0, 0.0, 0.0, 0.0, 0.0, 0.0, 0.0001, 0.0, 0.0, 0.0, 0.0, 0.0, 0.0, 0.0001, 0.0, 0.0, 0.0, 0.0, 0.0, 0.0, 0.0001)",0.0063115204651820085,-0.00397603735690767,0.013154436808880074,0.01260548225474123,0.005837843733362079,0.005138410939821697,"(0.0001, 0.0, 0.0, 0.0, 0.0, 0.0, 0.0, 0.0001, 0.0, 0.0, 0.0, 0.0, 0.0, 0.0, 0.0001, 0.0, 0.0, 0.0, 0.0, 0.0, 0.0, 0.0001, 0.0, 0.0, 0.0, 0.0, 0.0, 0.0, 0.0001, 0.0, 0.0, 0.0, 0.0, 0.0, 0.0, 0.0001)"
1969/12/31/21:22:32.660000,29,1352,650000000,world,base_link,0.0009693246067138013,-0.0006120302502257147,0.18228073333387596,1.2351753526413725e-05,1.011010945611754e-05,-6.973050870759073e-06,0.9999999998482982,"(0.0001, 0.0, 0.0, 0.0, 0.0, 0.0, 0.0, 0.0001, 0.0, 0.0, 0.0, 0.0, 0.0, 0.0, 0.0001, 0.0, 0.0, 0.0, 0.0, 0.0, 0.0, 0.0001, 0.0, 0.0, 0.0, 0.0, 0.0, 0.0, 0.0001, 0.0, 0.0, 0.0, 0.0, 0.0, 0.0, 0.0001)",0.007633684135212749,0.003251614474578948,0.002105799457094237,-0.011634555297399422,-0.01371393251997817,0.000617579924750886,"(0.0001, 0.0, 0.0, 0.0, 0.0, 0.0, 0.0, 0.0001, 0.0, 0.0, 0.0, 0.0, 0.0, 0.0, 0.0001, 0.0, 0.0, 0.0, 0.0, 0.0, 0.0, 0.0001, 0.0, 0.0, 0.0, 0.0, 0.0, 0.0, 0.0001, 0.0, 0.0, 0.0, 0.0, 0.0, 0.0, 0.0001)"
1969/12/31/21:22:32.700000,30,1352,670000000,world,base_link,0.0009695724062782788,-0.0006120257629983056,0.18228073303226683,1.2351571039142796e-05,1.0109586853194657e-05,-6.970026548279294e-06,0.9999999998483269,"(0.0001, 0.0, 0.0, 0.0, 0.0, 0.0, 0.0, 0.0001, 0.0, 0.0, 0.0, 0.0, 0.0, 0.0, 0.0001, 0.0, 0.0, 0.0, 0.0, 0.0, 0.0, 0.0001, 0.0, 0.0, 0.0, 0.0, 0.0, 0.0, 0.0001, 0.0, 0.0, 0.0, 0.0, 0.0, 0.0, 0.0001)",-0.005998337624805364,0.009276292313077856,-0.009675626396174955,0.010801586225971162,-0.003561387313935344,0.003966732578483676,"(0.0001, 0.0, 0.0, 0.0, 0.0, 0.0, 0.0, 0.0001, 0.0, 0.0, 0.0, 0.0, 0.0, 0.0, 0.0001, 0.0, 0.0, 0.0, 0.0, 0.0, 0.0, 0.0001, 0.0, 0.0, 0.0, 0.0, 0.0, 0.0, 0.0001, 0.0, 0.0, 0.0, 0.0, 0.0, 0.0, 0.0001)"
1969/12/31/21:22:32.700000,31,1352,690000000,world,base_link,0.0009698202303851861,-0.0006120212756747789,0.18228073273069373,1.2351388574842156e-05,1.0109064314715414e-05,-6.96700242817604e-06,0.9999999998483555,"(0.0001, 0.0, 0.0, 0.0, 0.0, 0.0, 0.0, 0.0001, 0.0, 0.0, 0.0, 0.0, 0.0, 0.0, 0.0001, 0.0, 0.0, 0.0, 0.0, 0.0, 0.0, 0.0001, 0.0, 0.0, 0.0, 0.0, 0.0, 0.0, 0.0001, 0.0, 0.0, 0.0, 0.0, 0.0, 0.0, 0.0001)",-0.015366645231895638,-0.012778052597954106,-0.010245591869120045,-0.012245052715598953,-0.01633736648191767,-0.0073654549138666755,"(0.0001, 0.0, 0.0, 0.0, 0.0, 0.0, 0.0, 0.0001, 0.0, 0.0, 0.0, 0.0, 0.0, 0.0, 0.0001, 0.0, 0.0, 0.0, 0.0, 0.0, 0.0, 0.0001, 0.0, 0.0, 0.0, 0.0, 0.0, 0.0, 0.0001, 0.0, 0.0, 0.0, 0.0, 0.0, 0.0, 0.0001)"
1969/12/31/21:22:32.750000,32,1352,710000000,world,base_link,0.0009700680790345837,-0.0006120167882550931,0.18228073242915666,1.2351206133472597e-05,1.0108541840658527e-05,-6.963978510425067e-06,0.9999999998483842,"(0.0001, 0.0, 0.0, 0.0, 0.0, 0.0, 0.0, 0.0001, 0.0, 0.0, 0.0, 0.0, 0.0, 0.0, 0.0001, 0.0, 0.0, 0.0, 0.0, 0.0, 0.0, 0.0001, 0.0, 0.0, 0.0, 0.0, 0.0, 0.0, 0.0001, 0.0, 0.0, 0.0, 0.0, 0.0, 0.0, 0.0001)",0.004248538050073224,-0.00751510964063839,0.0030850157925396814,0.0037375945781184896,0.003705065318784955,0.006109183347006738,"(0.0001, 0.0, 0.0, 0.0, 0.0, 0.0, 0.0, 0.0001, 0.0, 0.0, 0.0, 0.0, 0.0, 0.0, 0.0001, 0.0, 0.0, 0.0, 0.0, 0.0, 0.0, 0.0001, 0.0, 0.0, 0.0, 0.0, 0.0, 0.0, 0.0001, 0.0, 0.0, 0.0, 0.0, 0.0, 0.0, 0.0001)"
1969/12/31/21:22:32.750000,33,1352,730000000,world,base_link,0.000970315952226518,-0.0006120123007393313,0.18228073212765555,1.2351023715044354e-05,1.0108019431015464e-05,-6.960954794993164e-06,0.9999999998484128,"(0.0001, 0.0, 0.0, 0.0, 0.0, 0.0, 0.0, 0.0001, 0.0, 0.0, 0.0, 0.0, 0.0, 0.0, 0.0001, 0.0, 0.0, 0.0, 0.0, 0.0, 0.0, 0.0001, 0.0, 0.0, 0.0, 0.0, 0.0, 0.0, 0.0001, 0.0, 0.0, 0.0, 0.0, 0.0, 0.0, 0.0001)",0.006692127237568303,-0.004032158836078317,-0.016411922741352256,-0.0010028390917669648,-0.013623149680439204,-0.010441110367613667,"(0.0001, 0.0, 0.0, 0.0, 0.0, 0.0, 0.0, 0.0001, 0.0, 0.0, 0.0, 0.0, 0.0, 0.0, 0.0001, 0.0, 0.0, 0.0, 0.0, 0.0, 0.0, 0.0001, 0.0, 0.0, 0.0, 0.0, 0.0, 0.0, 0.0001, 0.0, 0.0, 0.0, 0.0, 0.0, 0.0, 0.0001)"
1969/12/31/21:22:32.750000,34,1352,750000000,world,base_link,0.0009705638499610448,-0.0006120078131274242,0.1822807318261905,1.2350841319549067e-05,1.010749708580411e-05,-6.957931281854947e-06,0.9999999998484412,"(0.0001, 0.0, 0.0, 0.0, 0.0, 0.0, 0.0, 0.0001, 0.0, 0.0, 0.0, 0.0, 0.0, 0.0, 0.0001, 0.0, 0.0, 0.0, 0.0, 0.0, 0.0, 0.0001, 0.0, 0.0, 0.0, 0.0, 0.0, 0.0, 0.0001, 0.0, 0.0, 0.0, 0.0, 0.0, 0.0, 0.0001)",0.006547056900652701,-0.005684007188923619,-0.0031660584356784397,-0.012048932166002899,0.007681013318821733,0.0030188532867384274,"(0.0001, 0.0, 0.0, 0.0, 0.0, 0.0, 0.0, 0.0001, 0.0, 0.0, 0.0, 0.0, 0.0, 0.0, 0.0001, 0.0, 0.0, 0.0, 0.0, 0.0, 0.0, 0.0001, 0.0, 0.0, 0.0, 0.0, 0.0, 0.0, 0.0001, 0.0, 0.0, 0.0, 0.0, 0.0, 0.0, 0.0001)"
1969/12/31/21:22:32.790000,35,1352,770000000,world,base_link,0.0009708117722382182,-0.0006120033254194829,0.18228073152476149,1.2350658946998383e-05,1.0106974804981921e-05,-6.954907970996512e-06,0.9999999998484699,"(0.0001, 0.0, 0.0, 0.0, 0.0, 0.0, 0.0, 0.0001, 0.0, 0.0, 0.0, 0.0, 0.0, 0.0, 0.0001, 0.0, 0.0, 0.0, 0.0, 0.0, 0.0, 0.0001, 0.0, 0.0, 0.0, 0.0, 0.0, 0.0, 0.0001, 0.0, 0.0, 0.0, 0.0, 0.0, 0.0, 0.0001)",0.015331138218297864,-0.0006727707445180126,0.004452017758345191,-0.011671806095424482,-0.014243653430075054,0.007877689777206912,"(0.0001, 0.0, 0.0, 0.0, 0.0, 0.0, 0.0, 0.0001, 0.0, 0.0, 0.0, 0.0, 0.0, 0.0, 0.0001, 0.0, 0.0, 0.0, 0.0, 0.0, 0.0, 0.0001, 0.0, 0.0, 0.0, 0.0, 0.0, 0.0, 0.0001, 0.0, 0.0, 0.0, 0.0, 0.0, 0.0, 0.0001)"
1969/12/31/21:22:32.790000,36,1352,790000000,world,base_link,0.0009710597190580829,-0.0006119988376154101,0.18228073122336846,1.2350476597367066e-05,1.0106452588568737e-05,-6.951884862378422e-06,0.9999999998484983,"(0.0001, 0.0, 0.0, 0.0, 0.0, 0.0, 0.0, 0.0001, 0.0, 0.0, 0.0, 0.0, 0.0, 0.0, 0.0001, 0.0, 0.0, 0.0, 0.0, 0.0, 0.0, 0.0001, 0.0, 0.0, 0.0, 0.0, 0.0, 0.0, 0.0001, 0.0, 0.0, 0.0, 0.0, 0.0, 0.0, 0.0001)",0.013931261056753505,0.009658258068451763,-0.011470131329297122,-0.010367063274612754,0.000992099659292364,-0.00196216140600434,"(0.0001, 0.0, 0.0, 0.0, 0.0, 0.0, 0.0, 0.0001, 0.0, 0.0, 0.0, 0.0, 0.0, 0.0, 0.0001, 0.0, 0.0, 0.0, 0.0, 0.0, 0.0, 0.0001, 0.0, 0.0, 0.0, 0.0, 0.0, 0.0, 0.0001, 0.0, 0.0, 0.0, 0.0, 0.0, 0.0, 0.0001)"
1969/12/31/21:22:32.810000,37,1352,810000000,world,base_link,0.0009713076904207121,-0.000611994349715303,0.18228073092201144,1.2350294270664738e-05,1.0105930436569375e-05,-6.9488619559764755e-06,0.9999999998485269,"(0.0001, 0.0, 0.0, 0.0, 0.0, 0.0, 0.0, 0.0001, 0.0, 0.0, 0.0, 0.0, 0.0, 0.0, 0.0001, 0.0, 0.0, 0.0, 0.0, 0.0, 0.0, 0.0001, 0.0, 0.0, 0.0, 0.0, 0.0, 0.0, 0.0001, 0.0, 0.0, 0.0, 0.0, 0.0, 0.0, 0.0001)",-0.009743914492281744,-0.006448702309022378,-0.005354822092344929,0.0008051298631371725,0.0018173312391828657,0.003096831173014182,"(0.0001, 0.0, 0.0, 0.0, 0.0, 0.0, 0.0, 0.0001, 0.0, 0.0, 0.0, 0.0, 0.0, 0.0, 0.0001, 0.0, 0.0, 0.0, 0.0, 0.0, 0.0, 0.0001, 0.0, 0.0, 0.0, 0.0, 0.0, 0.0, 0.0001, 0.0, 0.0, 0.0, 0.0, 0.0, 0.0, 0.0001)"
1969/12/31/21:22:32.830000,38,1352,830000000,world,base_link,0.0009715556863261468,-0.0006119898617191061,0.18228073062069045,1.2350111966892672e-05,1.0105408348922422e-05,-6.945839251771029e-06,0.9999999998485554,"(0.0001, 0.0, 0.0, 0.0, 0.0, 0.0, 0.0, 0.0001, 0.0, 0.0, 0.0, 0.0, 0.0, 0.0, 0.0001, 0.0, 0.0, 0.0, 0.0, 0.0, 0.0, 0.0001, 0.0, 0.0, 0.0, 0.0, 0.0, 0.0, 0.0001, 0.0, 0.0, 0.0, 0.0, 0.0, 0.0, 0.0001)",-0.015384758961786036,-0.006060605606539495,-0.0036515998269372597,-0.011487668096691668,0.014654060295617576,-0.003340857625275178,"(0.0001, 0.0, 0.0, 0.0, 0.0, 0.0, 0.0, 0.0001, 0.0, 0.0, 0.0, 0.0, 0.0, 0.0, 0.0001, 0.0, 0.0, 0.0, 0.0, 0.0, 0.0, 0.0001, 0.0, 0.0, 0.0, 0.0, 0.0, 0.0, 0.0001, 0.0, 0.0, 0.0, 0.0, 0.0, 0.0, 0.0001)"
1969/12/31/21:22:32.870000,39,1352,850000000,world,base_link,0.0009718037067744364,-0.0006119853736268888,0.18228073031940542,1.2349929686016893e-05,1.0104886325616965e-05,-6.942816749735804e-06,0.999999999848584,"(0.0001, 0.0, 0.0, 0.0, 0.0, 0.0, 0.0, 0.0001, 0.0, 0.0, 0.0, 0.0, 0.0, 0.0, 0.0001, 0.0, 0.0, 0.0, 0.0, 0.0, 0.0, 0.0001, 0.0, 0.0, 0.0, 0.0, 0.0, 0.0, 0.0001, 0.0, 0.0, 0.0, 0.0, 0.0, 0.0, 0.0001)",0.007867900104156458,0.02266681431029827,-0.009006205399728188,0.011052287295639486,-0.009705283837973687,0.013342221635304699,"(0.0001, 0.0, 0.0, 0.0, 0.0, 0.0, 0.0, 0.0001, 0.0, 0.0, 0.0, 0.0, 0.0, 0.0, 0.0001, 0.0, 0.0, 0.0, 0.0, 0.0, 0.0, 0.0001, 0.0, 0.0, 0.0, 0.0, 0.0, 0.0, 0.0001, 0.0, 0.0, 0.0, 0.0, 0.0, 0.0, 0.0001)"
1969/12/31/21:22:32.870000,40,1352,870000000,world,base_link,0.0009720517517656543,-0.0006119808854386372,0.18228073001815637,1.2349747428042714e-05,1.0104364366728992e-05,-6.939794449865225e-06,0.9999999998486124,"(0.0001, 0.0, 0.0, 0.0, 0.0, 0.0, 0.0, 0.0001, 0.0, 0.0, 0.0, 0.0, 0.0, 0.0, 0.0001, 0.0, 0.0, 0.0, 0.0, 0.0, 0.0, 0.0001, 0.0, 0.0, 0.0, 0.0, 0.0, 0.0, 0.0001, 0.0, 0.0, 0.0, 0.0, 0.0, 0.0, 0.0001)",0.023519593103782478,0.01105004967338369,0.0014609429796504552,0.0031601011223165018,0.009620188212427378,0.013887433923362063,"(0.0001, 0.0, 0.0, 0.0, 0.0, 0.0, 0.0, 0.0001, 0.0, 0.0, 0.0, 0.0, 0.0, 0.0, 0.0001, 0.0, 0.0, 0.0, 0.0, 0.0, 0.0, 0.0001, 0.0, 0.0, 0.0, 0.0, 0.0, 0.0, 0.0001, 0.0, 0.0, 0.0, 0.0, 0.0, 0.0, 0.0001)"
1969/12/31/21:22:32.920000,41,1352,890000000,world,base_link,0.0009722998212998407,-0.000611976397154379,0.18228072971694334,1.23495651930333e-05,1.0103842472180229e-05,-6.936772352105882e-06,0.9999999998486409,"(0.0001, 0.0, 0.0, 0.0, 0.0, 0.0, 0.0, 0.0001, 0.0, 0.0, 0.0, 0.0, 0.0, 0.0, 0.0001, 0.0, 0.0, 0.0, 0.0, 0.0, 0.0, 0.0001, 0.0, 0.0, 0.0, 0.0, 0.0, 0.0, 0.0001, 0.0, 0.0, 0.0, 0.0, 0.0, 0.0, 0.0001)",0.0008953772085009876,-0.0013979098362210465,0.009659796527711977,0.0008769240289822511,-0.011769354807288215,0.00048409153507541667,"(0.0001, 0.0, 0.0, 0.0, 0.0, 0.0, 0.0, 0.0001, 0.0, 0.0, 0.0, 0.0, 0.0, 0.0, 0.0001, 0.0, 0.0, 0.0, 0.0, 0.0, 0.0, 0.0001, 0.0, 0.0, 0.0, 0.0, 0.0, 0.0, 0.0001, 0.0, 0.0, 0.0, 0.0, 0.0, 0.0, 0.0001)"
1969/12/31/21:22:32.920000,42,1352,910000000,world,base_link,0.0009725479153770624,-0.0006119719087741143,0.18228072941576626,1.2349382980901526e-05,1.0103320642003415e-05,-6.933750456450897e-06,0.9999999998486695,"(0.0001, 0.0, 0.0, 0.0, 0.0, 0.0, 0.0, 0.0001, 0.0, 0.0, 0.0, 0.0, 0.0, 0.0, 0.0001, 0.0, 0.0, 0.0, 0.0, 0.0, 0.0, 0.0001, 0.0, 0.0, 0.0, 0.0, 0.0, 0.0, 0.0001, 0.0, 0.0, 0.0, 0.0, 0.0, 0.0, 0.0001)",-0.0032447346025851666,0.001728752771490269,-0.0069608481976681106,-0.007373258365806008,0.0029284079355388756,0.010220564746164154,"(0.0001, 0.0, 0.0, 0.0, 0.0, 0.0, 0.0, 0.0001, 0.0, 0.0, 0.0, 0.0, 0.0, 0.0, 0.0001, 0.0, 0.0, 0.0, 0.0, 0.0, 0.0, 0.0001, 0.0, 0.0, 0.0, 0.0, 0.0, 0.0, 0.0001, 0.0, 0.0, 0.0, 0.0, 0.0, 0.0, 0.0001)"
1969/12/31/21:22:32.960000,43,1352,930000000,world,base_link,0.0009727960339973677,-0.0006119674202978431,0.18228072911462517,1.2349200791713737e-05,1.0102798876167376e-05,-6.93072876287381e-06,0.9999999998486979,"(0.0001, 0.0, 0.0, 0.0, 0.0, 0.0, 0.0, 0.0001, 0.0, 0.0, 0.0, 0.0, 0.0, 0.0, 0.0001, 0.0, 0.0, 0.0, 0.0, 0.0, 0.0, 0.0001, 0.0, 0.0, 0.0, 0.0, 0.0, 0.0, 0.0001, 0.0, 0.0, 0.0, 0.0, 0.0, 0.0, 0.0001)",0.01142396943104694,-0.0026983887239339296,-0.001080504661072918,0.0251410647001898,-0.008351971516558438,0.004437943887343834,"(0.0001, 0.0, 0.0, 0.0, 0.0, 0.0, 0.0, 0.0001, 0.0, 0.0, 0.0, 0.0, 0.0, 0.0, 0.0001, 0.0, 0.0, 0.0, 0.0, 0.0, 0.0, 0.0001, 0.0, 0.0, 0.0, 0.0, 0.0, 0.0, 0.0001, 0.0, 0.0, 0.0, 0.0, 0.0, 0.0, 0.0001)"
1969/12/31/21:22:32.960000,44,1352,950000000,world,base_link,0.000973044177160809,-0.0006119629317255654,0.18228072881352006,1.234901862540697e-05,1.0102277174675318e-05,-6.927707271330655e-06,0.9999999998487263,"(0.0001, 0.0, 0.0, 0.0, 0.0, 0.0, 0.0, 0.0001, 0.0, 0.0, 0.0, 0.0, 0.0, 0.0, 0.0001, 0.0, 0.0, 0.0, 0.0, 0.0, 0.0, 0.0001, 0.0, 0.0, 0.0, 0.0, 0.0, 0.0, 0.0001, 0.0, 0.0, 0.0, 0.0, 0.0, 0.0, 0.0001)",-0.003055746120038604,-0.006842718931175575,-0.012515129633580391,-0.010797268568428125,0.005883507155980877,-0.006466777841969335,"(0.0001, 0.0, 0.0, 0.0, 0.0, 0.0, 0.0, 0.0001, 0.0, 0.0, 0.0, 0.0, 0.0, 0.0, 0.0001, 0.0, 0.0, 0.0, 0.0, 0.0, 0.0, 0.0001, 0.0, 0.0, 0.0, 0.0, 0.0, 0.0, 0.0001, 0.0, 0.0, 0.0, 0.0, 0.0, 0.0, 0.0001)"
1969/12/31/21:22:33.000000,45,1352,970000000,world,base_link,0.0009732923448674611,-0.0006119584430573088,0.18228072851245092,1.2348836481995918e-05,1.0101755537526557e-05,-6.9246859818103715e-06,0.9999999998487548,"(0.0001, 0.0, 0.0, 0.0, 0.0, 0.0, 0.0, 0.0001, 0.0, 0.0, 0.0, 0.0, 0.0, 0.0, 0.0001, 0.0, 0.0, 0.0, 0.0, 0.0, 0.0, 0.0001, 0.0, 0.0, 0.0, 0.0, 0.0, 0.0, 0.0001, 0.0, 0.0, 0.0, 0.0, 0.0, 0.0, 0.0001)",-0.008329307603020582,-0.008775607093260996,0.0028087379875235507,0.0022216469140816015,0.002013121140496668,-0.00913468617874059,"(0.0001, 0.0, 0.0, 0.0, 0.0, 0.0, 0.0, 0.0001, 0.0, 0.0, 0.0, 0.0, 0.0, 0.0, 0.0001, 0.0, 0.0, 0.0, 0.0, 0.0, 0.0, 0.0001, 0.0, 0.0, 0.0, 0.0, 0.0, 0.0, 0.0001, 0.0, 0.0, 0.0, 0.0, 0.0, 0.0, 0.0001)"
1969/12/31/21:22:33.000000,46,1352,990000000,world,base_link,0.000973540537117381,-0.0006119539542930874,0.18228072821141778,1.2348654361504672e-05,1.0101233964698095e-05,-6.921664894281216e-06,0.9999999998487832,"(0.0001, 0.0, 0.0, 0.0, 0.0, 0.0, 0.0, 0.0001, 0.0, 0.0, 0.0, 0.0, 0.0, 0.0, 0.0001, 0.0, 0.0, 0.0, 0.0, 0.0, 0.0, 0.0001, 0.0, 0.0, 0.0, 0.0, 0.0, 0.0, 0.0001, 0.0, 0.0, 0.0, 0.0, 0.0, 0.0, 0.0001)",0.004561128118730209,-0.0007253291781256279,0.010187401686047436,0.013798493601521989,0.00645713573827087,0.0007239973265482807,"(0.0001, 0.0, 0.0, 0.0, 0.0, 0.0, 0.0, 0.0001, 0.0, 0.0, 0.0, 0.0, 0.0, 0.0, 0.0001, 0.0, 0.0, 0.0, 0.0, 0.0, 0.0, 0.0001, 0.0, 0.0, 0.0, 0.0, 0.0, 0.0, 0.0001, 0.0, 0.0, 0.0, 0.0, 0.0, 0.0, 0.0001)"
1969/12/31/21:22:33.050000,47,1353,10000000,world,base_link,0.0009737887539105907,-0.0006119494654329566,0.18228072791042055,1.2348472263884638e-05,1.0100712456186612e-05,-6.918644008720262e-06,0.9999999998488116,"(0.0001, 0.0, 0.0, 0.0, 0.0, 0.0, 0.0, 0.0001, 0.0, 0.0, 0.0, 0.0, 0.0, 0.0, 0.0001, 0.0, 0.0, 0.0, 0.0, 0.0, 0.0, 0.0001, 0.0, 0.0, 0.0, 0.0, 0.0, 0.0, 0.0001, 0.0, 0.0, 0.0, 0.0, 0.0, 0.0, 0.0001)",0.00945983351653847,-0.0032608582906253243,-0.014036360763604594,0.0021523830787820177,0.0038633305724908576,-0.0025490495810793525,"(0.0001, 0.0, 0.0, 0.0, 0.0, 0.0, 0.0, 0.0001, 0.0, 0.0, 0.0, 0.0, 0.0, 0.0, 0.0001, 0.0, 0.0, 0.0, 0.0, 0.0, 0.0, 0.0001, 0.0, 0.0, 0.0, 0.0, 0.0, 0.0, 0.0001, 0.0, 0.0, 0.0, 0.0, 0.0, 0.0, 0.0001)"
1969/12/31/21:22:33.050000,48,1353,30000000,world,base_link,0.000974036995247159,-0.0006119449764768609,0.1822807276094593,1.2348290189181547e-05,1.0100191011969157e-05,-6.915623325113859e-06,0.99999999984884,"(0.0001, 0.0, 0.0, 0.0, 0.0, 0.0, 0.0, 0.0001, 0.0, 0.0, 0.0, 0.0, 0.0, 0.0, 0.0001, 0.0, 0.0, 0.0, 0.0, 0.0, 0.0, 0.0001, 0.0, 0.0, 0.0, 0.0, 0.0, 0.0, 0.0001, 0.0, 0.0, 0.0, 0.0, 0.0, 0.0, 0.0001)",0.015409225673793988,0.01268929535534499,0.009829000912980446,0.00543686548901695,0.0048616371771550825,0.0034628444899966917,"(0.0001, 0.0, 0.0, 0.0, 0.0, 0.0, 0.0, 0.0001, 0.0, 0.0, 0.0, 0.0, 0.0, 0.0, 0.0001, 0.0, 0.0, 0.0, 0.0, 0.0, 0.0, 0.0001, 0.0, 0.0, 0.0, 0.0, 0.0, 0.0, 0.0001, 0.0, 0.0, 0.0, 0.0, 0.0, 0.0, 0.0001)"
1969/12/31/21:22:33.050000,49,1353,50000000,world,base_link,0.0009742852611271725,-0.0006119404874248557,0.182280727308534,1.2348108137352288e-05,1.0099669632095832e-05,-6.912602843429949e-06,0.9999999998488684,"(0.0001, 0.0, 0.0, 0.0, 0.0, 0.0, 0.0, 0.0001, 0.0, 0.0, 0.0, 0.0, 0.0, 0.0, 0.0001, 0.0, 0.0, 0.0, 0.0, 0.0, 0.0, 0.0001, 0.0, 0.0, 0.0, 0.0, 0.0, 0.0, 0.0001, 0.0, 0.0, 0.0, 0.0, 0.0, 0.0, 0.0001)",-0.01266944342456349,0.003086681463068908,-0.0029174789089103275,0.013596734485175751,-0.005271630829746735,-0.0015618740309924538,"(0.0001, 0.0, 0.0, 0.0, 0.0, 0.0, 0.0, 0.0001, 0.0, 0.0, 0.0, 0.0, 0.0, 0.0, 0.0001, 0.0, 0.0, 0.0, 0.0, 0.0, 0.0, 0.0001, 0.0, 0.0, 0.0, 0.0, 0.0, 0.0, 0.0001, 0.0, 0.0, 0.0, 0.0, 0.0, 0.0, 0.0001)"
1969/12/31/21:22:33.100000,50,1353,70000000,world,base_link,0.0009745335515506883,-0.0006119359982769135,0.18228072700764464,1.2347926108371557e-05,1.0099148316506953e-05,-6.909582563627443e-06,0.9999999998488969,"(0.0001, 0.0, 0.0, 0.0, 0.0, 0.0, 0.0, 0.0001, 0.0, 0.0, 0.0, 0.0, 0.0, 0.0, 0.0001, 0.0, 0.0, 0.0, 0.0, 0.0, 0.0, 0.0001, 0.0, 0.0, 0.0, 0.0, 0.0, 0.0, 0.0001, 0.0, 0.0, 0.0, 0.0, 0.0, 0.0, 0.0001)",-0.012970666792076771,-0.00017985293087375613,0.006465294693569007,-0.010549289751675852,-0.0007839038682614928,-0.016927600595083553,"(0.0001, 0.0, 0.0, 0.0, 0.0, 0.0, 0.0, 0.0001, 0.0, 0.0, 0.0, 0.0, 0.0, 0.0, 0.0001, 0.0, 0.0, 0.0, 0.0, 0.0, 0.0, 0.0001, 0.0, 0.0, 0.0, 0.0, 0.0, 0.0, 0.0001, 0.0, 0.0, 0.0, 0.0, 0.0, 0.0, 0.0001)"
1969/12/31/21:22:33.100000,51,1353,90000000,world,base_link,0.0009747818665177103,-0.0006119315090330757,0.18228072670679124,1.2347744102333898e-05,1.0098627065201382e-05,-6.90656248567985e-06,0.9999999998489253,"(0.0001, 0.0, 0.0, 0.0, 0.0, 0.0, 0.0, 0.0001, 0.0, 0.0, 0.0, 0.0, 0.0, 0.0, 0.0001, 0.0, 0.0, 0.0, 0.0, 0.0, 0.0, 0.0001, 0.0, 0.0, 0.0, 0.0, 0.0, 0.0, 0.0001, 0.0, 0.0, 0.0, 0.0, 0.0, 0.0, 0.0001)",0.008589460983935406,0.007362883428100766,-0.006438126473127951,0.013644014106151655,-0.007081253717322372,-0.006066276223247431,"(0.0001, 0.0, 0.0, 0.0, 0.0, 0.0, 0.0, 0.0001, 0.0, 0.0, 0.0, 0.0, 0.0, 0.0, 0.0001, 0.0, 0.0, 0.0, 0.0, 0.0, 0.0, 0.0001, 0.0, 0.0, 0.0, 0.0, 0.0, 0.0, 0.0001, 0.0, 0.0, 0.0, 0.0, 0.0, 0.0, 0.0001)"
1969/12/31/21:22:33.110000,52,1353,110000000,world,base_link,0.0009750302060283463,-0.0006119270196933008,0.1822807264059738,1.2347562119176683e-05,1.0098105878207549e-05,-6.9035426095908994e-06,0.9999999998489536,"(0.0001, 0.0, 0.0, 0.0, 0.0, 0.0, 0.0, 0.0001, 0.0, 0.0, 0.0, 0.0, 0.0, 0.0, 0.0001, 0.0, 0.0, 0.0, 0.0, 0.0, 0.0, 0.0001, 0.0, 0.0, 0.0, 0.0, 0.0, 0.0, 0.0001, 0.0, 0.0, 0.0, 0.0, 0.0, 0.0, 0.0001)",-0.0051024055002003585,0.0006721780500779617,-0.020163143856641644,0.0018924482779460092,-0.007987994030108423,0.013455415392591586,"(0.0001, 0.0, 0.0, 0.0, 0.0, 0.0, 0.0, 0.0001, 0.0, 0.0, 0.0, 0.0, 0.0, 0.0, 0.0001, 0.0, 0.0, 0.0, 0.0, 0.0, 0.0, 0.0001, 0.0, 0.0, 0.0, 0.0, 0.0, 0.0, 0.0001, 0.0, 0.0, 0.0, 0.0, 0.0, 0.0, 0.0001)"
1969/12/31/21:22:33.130000,53,1353,130000000,world,base_link,0.0009752785700826347,-0.0006119225302576997,0.18228072610519228,1.2347380158898e-05,1.009758475544382e-05,-6.900522935321133e-06,0.9999999998489819,"(0.0001, 0.0, 0.0, 0.0, 0.0, 0.0, 0.0, 0.0001, 0.0, 0.0, 0.0, 0.0, 0.0, 0.0, 0.0001, 0.0, 0.0, 0.0, 0.0, 0.0, 0.0, 0.0001, 0.0, 0.0, 0.0, 0.0, 0.0, 0.0, 0.0001, 0.0, 0.0, 0.0, 0.0, 0.0, 0.0, 0.0001)",-0.007923399527798223,3.3175302457677576e-05,0.019092012649899154,-0.0019466445886782606,-0.011962075887155161,0.010622172543898118,"(0.0001, 0.0, 0.0, 0.0, 0.0, 0.0, 0.0, 0.0001, 0.0, 0.0, 0.0, 0.0, 0.0, 0.0, 0.0001, 0.0, 0.0, 0.0, 0.0, 0.0, 0.0, 0.0001, 0.0, 0.0, 0.0, 0.0, 0.0, 0.0, 0.0001, 0.0, 0.0, 0.0, 0.0, 0.0, 0.0, 0.0001)"
1969/12/31/21:22:33.170000,54,1353,150000000,world,base_link,0.0009755269586806399,-0.000611918040726217,0.18228072580444665,1.234719822146933e-05,1.0097063696952381e-05,-6.897503462861806e-06,0.9999999998490103,"(0.0001, 0.0, 0.0, 0.0, 0.0, 0.0, 0.0, 0.0001, 0.0, 0.0, 0.0, 0.0, 0.0, 0.0, 0.0001, 0.0, 0.0, 0.0, 0.0, 0.0, 0.0, 0.0001, 0.0, 0.0, 0.0, 0.0, 0.0, 0.0, 0.0001, 0.0, 0.0, 0.0, 0.0, 0.0, 0.0, 0.0001)",0.010850820270857512,0.015942208317917362,0.008721489633297892,-0.01371982806481967,0.0007906025393017165,-0.005384639720548448,"(0.0001, 0.0, 0.0, 0.0, 0.0, 0.0, 0.0, 0.0001, 0.0, 0.0, 0.0, 0.0, 0.0, 0.0, 0.0001, 0.0, 0.0, 0.0, 0.0, 0.0, 0.0, 0.0001, 0.0, 0.0, 0.0, 0.0, 0.0, 0.0, 0.0001, 0.0, 0.0, 0.0, 0.0, 0.0, 0.0, 0.0001)"
1969/12/31/21:22:33.170000,55,1353,170000000,world,base_link,0.0009757753718224241,-0.0006119135510988805,0.18228072550373703,1.2347016306960667e-05,1.009654270275998e-05,-6.894484192164096e-06,0.9999999998490386,"(0.0001, 0.0, 0.0, 0.0, 0.0, 0.0, 0.0, 0.0001, 0.0, 0.0, 0.0, 0.0, 0.0, 0.0, 0.0001, 0.0, 0.0, 0.0, 0.0, 0.0, 0.0, 0.0001, 0.0, 0.0, 0.0, 0.0, 0.0, 0.0, 0.0001, 0.0, 0.0, 0.0, 0.0, 0.0, 0.0, 0.0001)",0.006019109539420232,-0.011591605597987569,-0.017808215887483953,0.006702109642194198,0.009948384497276483,0.015334981816601144,"(0.0001, 0.0, 0.0, 0.0, 0.0, 0.0, 0.0, 0.0001, 0.0, 0.0, 0.0, 0.0, 0.0, 0.0, 0.0001, 0.0, 0.0, 0.0, 0.0, 0.0, 0.0, 0.0001, 0.0, 0.0, 0.0, 0.0, 0.0, 0.0, 0.0001, 0.0, 0.0, 0.0, 0.0, 0.0, 0.0, 0.0001)"
1969/12/31/21:22:33.220000,56,1353,190000000,world,base_link,0.000976023809508015,-0.0006119090613756761,0.18228072520306332,1.2346834415280965e-05,1.009602177280019e-05,-6.891465123221694e-06,0.999999999849067,"(0.0001, 0.0, 0.0, 0.0, 0.0, 0.0, 0.0, 0.0001, 0.0, 0.0, 0.0, 0.0, 0.0, 0.0, 0.0001, 0.0, 0.0, 0.0, 0.0, 0.0, 0.0, 0.0001, 0.0, 0.0, 0.0, 0.0, 0.0, 0.0, 0.0001, 0.0, 0.0, 0.0, 0.0, 0.0, 0.0, 0.0001)",0.008840080646796379,-0.004002584254941748,0.0063384661375656196,-0.02825606673395142,0.0034340104743148148,-0.013230369774982147,"(0.0001, 0.0, 0.0, 0.0, 0.0, 0.0, 0.0, 0.0001, 0.0, 0.0, 0.0, 0.0, 0.0, 0.0, 0.0001, 0.0, 0.0, 0.0, 0.0, 0.0, 0.0, 0.0001, 0.0, 0.0, 0.0, 0.0, 0.0, 0.0, 0.0001, 0.0, 0.0, 0.0, 0.0, 0.0, 0.0, 0.0001)"
1969/12/31/21:22:33.220000,57,1353,210000000,world,base_link,0.0009762722717374937,-0.0006119045715567012,0.18228072490242547,1.2346652546460492e-05,1.0095500907078988e-05,-6.88844625600517e-06,0.9999999998490952,"(0.0001, 0.0, 0.0, 0.0, 0.0, 0.0, 0.0, 0.0001, 0.0, 0.0, 0.0, 0.0, 0.0, 0.0, 0.0001, 0.0, 0.0, 0.0, 0.0, 0.0, 0.0, 0.0001, 0.0, 0.0, 0.0, 0.0, 0.0, 0.0, 0.0001, 0.0, 0.0, 0.0, 0.0, 0.0, 0.0, 0.0001)",-0.00562951438812901,-0.003998645701138661,0.01315986898220901,0.01079003225381292,-0.020983887924584704,-0.01497503746682789,"(0.0001, 0.0, 0.0, 0.0, 0.0, 0.0, 0.0, 0.0001, 0.0, 0.0, 0.0, 0.0, 0.0, 0.0, 0.0001, 0.0, 0.0, 0.0, 0.0, 0.0, 0.0, 0.0001, 0.0, 0.0, 0.0, 0.0, 0.0, 0.0, 0.0001, 0.0, 0.0, 0.0, 0.0, 0.0, 0.0, 0.0001)"
1969/12/31/21:22:33.260000,58,1353,230000000,world,base_link,0.0009765207585109405,-0.0006119000816418585,0.1822807246018236,1.2346470700519445e-05,1.0094980105622574e-05,-6.8854275904775806e-06,0.9999999998491236,"(0.0001, 0.0, 0.0, 0.0, 0.0, 0.0, 0.0, 0.0001, 0.0, 0.0, 0.0, 0.0, 0.0, 0.0, 0.0001, 0.0, 0.0, 0.0, 0.0, 0.0, 0.0, 0.0001, 0.0, 0.0, 0.0, 0.0, 0.0, 0.0, 0.0001, 0.0, 0.0, 0.0, 0.0, 0.0, 0.0, 0.0001)",0.0039275472341071095,0.0010359501726425607,0.008979411241920232,0.010600894567756,-0.003316905527555189,-0.029206029263580707,"(0.0001, 0.0, 0.0, 0.0, 0.0, 0.0, 0.0, 0.0001, 0.0, 0.0, 0.0, 0.0, 0.0, 0.0, 0.0001, 0.0, 0.0, 0.0, 0.0, 0.0, 0.0, 0.0001, 0.0, 0.0, 0.0, 0.0, 0.0, 0.0, 0.0001, 0.0, 0.0, 0.0, 0.0, 0.0, 0.0, 0.0001)"
1969/12/31/21:22:33.260000,59,1353,250000000,world,base_link,0.0009767692698283755,-0.0006118955916311897,0.1822807243012576,1.2346288877443703e-05,1.0094459368367887e-05,-6.882409126606208e-06,0.9999999998491518,"(0.0001, 0.0, 0.0, 0.0, 0.0, 0.0, 0.0, 0.0001, 0.0, 0.0, 0.0, 0.0, 0.0, 0.0, 0.0001, 0.0, 0.0, 0.0, 0.0, 0.0, 0.0, 0.0001, 0.0, 0.0, 0.0, 0.0, 0.0, 0.0, 0.0001, 0.0, 0.0, 0.0, 0.0, 0.0, 0.0, 0.0001)",-0.003649107603583344,-0.00047593032107323463,0.0001709364574750615,-0.013483009980622743,-0.0030684775730229373,0.0034241245625548943,"(0.0001, 0.0, 0.0, 0.0, 0.0, 0.0, 0.0, 0.0001, 0.0, 0.0, 0.0, 0.0, 0.0, 0.0, 0.0001, 0.0, 0.0, 0.0, 0.0, 0.0, 0.0, 0.0001, 0.0, 0.0, 0.0, 0.0, 0.0, 0.0, 0.0001, 0.0, 0.0, 0.0, 0.0, 0.0, 0.0, 0.0001)"
1969/12/31/21:22:33.310000,60,1353,270000000,world,base_link,0.0009770178056898865,-0.0006118911015246808,0.1822807240007275,1.2346107077214318e-05,1.009393869538927e-05,-6.879390864392844e-06,0.99999999984918,"(0.0001, 0.0, 0.0, 0.0, 0.0, 0.0, 0.0, 0.0001, 0.0, 0.0, 0.0, 0.0, 0.0, 0.0, 0.0001, 0.0, 0.0, 0.0, 0.0, 0.0, 0.0, 0.0001, 0.0, 0.0, 0.0, 0.0, 0.0, 0.0, 0.0001, 0.0, 0.0, 0.0, 0.0, 0.0, 0.0, 0.0001)",0.004954372066387573,0.0034732754839083323,-0.009192918180464572,-0.004513747738484961,0.0006793621646570189,0.011912219735228796,"(0.0001, 0.0, 0.0, 0.0, 0.0, 0.0, 0.0, 0.0001, 0.0, 0.0, 0.0, 0.0, 0.0, 0.0, 0.0001, 0.0, 0.0, 0.0, 0.0, 0.0, 0.0, 0.0001, 0.0, 0.0, 0.0, 0.0, 0.0, 0.0, 0.0001, 0.0, 0.0, 0.0, 0.0, 0.0, 0.0, 0.0001)"
1969/12/31/21:22:33.310000,61,1353,290000000,world,base_link,0.000977266366095515,-0.000611886611322443,0.1822807237002333,1.2345925299837839e-05,1.009341808659269e-05,-6.876372803787078e-06,0.9999999998492084,"(0.0001, 0.0, 0.0, 0.0, 0.0, 0.0, 0.0, 0.0001, 0.0, 0.0, 0.0, 0.0, 0.0, 0.0, 0.0001, 0.0, 0.0, 0.0, 0.0, 0.0, 0.0, 0.0001, 0.0, 0.0, 0.0, 0.0, 0.0, 0.0, 0.0001, 0.0, 0.0, 0.0, 0.0, 0.0, 0.0, 0.0001)",-0.007433189042977784,0.018878301765089336,-0.005696536456430576,0.008264788512725826,0.0002636536317798863,0.0027136229659212013,"(0.0001, 0.0, 0.0, 0.0, 0.0, 0.0, 0.0, 0.0001, 0.0, 0.0, 0.0, 0.0, 0.0, 0.0, 0.0001, 0.0, 0.0, 0.0, 0.0, 0.0, 0.0, 0.0001, 0.0, 0.0, 0.0, 0.0, 0.0, 0.0, 0.0001, 0.0, 0.0, 0.0, 0.0, 0.0, 0.0, 0.0001)"
1969/12/31/21:22:33.310000,62,1353,310000000,world,base_link,0.000977514951045329,-0.000611882121024393,0.18228072339977505,1.2345743545352006e-05,1.0092897542014675e-05,-6.873354944765751e-06,0.9999999998492366,"(0.0001, 0.0, 0.0, 0.0, 0.0, 0.0, 0.0, 0.0001, 0.0, 0.0, 0.0, 0.0, 0.0, 0.0, 0.0001, 0.0, 0.0, 0.0, 0.0, 0.0, 0.0, 0.0001, 0.0, 0.0, 0.0, 0.0, 0.0, 0.0, 0.0001, 0.0, 0.0, 0.0, 0.0, 0.0, 0.0, 0.0001)",0.007854653497092693,0.011417099562910458,-0.005017131989129521,0.0012241557331359703,-0.0002610326895674361,0.003940553915812229,"(0.0001, 0.0, 0.0, 0.0, 0.0, 0.0, 0.0, 0.0001, 0.0, 0.0, 0.0, 0.0, 0.0, 0.0, 0.0001, 0.0, 0.0, 0.0, 0.0, 0.0, 0.0, 0.0001, 0.0, 0.0, 0.0, 0.0, 0.0, 0.0, 0.0001, 0.0, 0.0, 0.0, 0.0, 0.0, 0.0, 0.0001)"
1969/12/31/21:22:33.350000,63,1353,330000000,world,base_link,0.0009777635605393718,-0.0006118776306306001,0.18228072309935264,1.2345561813684973e-05,1.0092377061660765e-05,-6.870337287315891e-06,0.9999999998492648,"(0.0001, 0.0, 0.0, 0.0, 0.0, 0.0, 0.0, 0.0001, 0.0, 0.0, 0.0, 0.0, 0.0, 0.0, 0.0001, 0.0, 0.0, 0.0, 0.0, 0.0, 0.0, 0.0001, 0.0, 0.0, 0.0, 0.0, 0.0, 0.0, 0.0001, 0.0, 0.0, 0.0, 0.0, 0.0, 0.0, 0.0001)",0.0007153226063101216,0.015846947330708815,0.007402375699098123,-0.004535019464792844,0.0007426392250365068,-0.003789806565364057,"(0.0001, 0.0, 0.0, 0.0, 0.0, 0.0, 0.0, 0.0001, 0.0, 0.0, 0.0, 0.0, 0.0, 0.0, 0.0001, 0.0, 0.0, 0.0, 0.0, 0.0, 0.0, 0.0001, 0.0, 0.0, 0.0, 0.0, 0.0, 0.0, 0.0001, 0.0, 0.0, 0.0, 0.0, 0.0, 0.0, 0.0001)"
1969/12/31/21:22:33.350000,64,1353,350000000,world,base_link,0.000978012194577726,-0.0006118731401410643,0.18228072279896618,1.2345380104830184e-05,1.0091856645512932e-05,-6.867319831422127e-06,0.999999999849293,"(0.0001, 0.0, 0.0, 0.0, 0.0, 0.0, 0.0, 0.0001, 0.0, 0.0, 0.0, 0.0, 0.0, 0.0, 0.0001, 0.0, 0.0, 0.0, 0.0, 0.0, 0.0, 0.0001, 0.0, 0.0, 0.0, 0.0, 0.0, 0.0, 0.0001, 0.0, 0.0, 0.0, 0.0, 0.0, 0.0, 0.0001)",-0.011995713713905783,-0.0005065628790022771,0.007176704546649976,0.0009993593793521849,0.008011972488856121,0.0013171049098372352,"(0.0001, 0.0, 0.0, 0.0, 0.0, 0.0, 0.0, 0.0001, 0.0, 0.0, 0.0, 0.0, 0.0, 0.0, 0.0001, 0.0, 0.0, 0.0, 0.0, 0.0, 0.0, 0.0001, 0.0, 0.0, 0.0, 0.0, 0.0, 0.0, 0.0001, 0.0, 0.0, 0.0, 0.0, 0.0, 0.0, 0.0001)"
1969/12/31/21:22:33.370000,65,1353,370000000,world,base_link,0.0009782608531604502,-0.000611868649555744,0.18228072249861557,1.2345198418895707e-05,1.00913362935404e-05,-6.864302577016719e-06,0.9999999998493212,"(0.0001, 0.0, 0.0, 0.0, 0.0, 0.0, 0.0, 0.0001, 0.0, 0.0, 0.0, 0.0, 0.0, 0.0, 0.0001, 0.0, 0.0, 0.0, 0.0, 0.0, 0.0, 0.0001, 0.0, 0.0, 0.0, 0.0, 0.0, 0.0, 0.0001, 0.0, 0.0, 0.0, 0.0, 0.0, 0.0, 0.0001)",-0.0016155425096147202,0.006523568270024182,-0.014751310317355994,-0.0018981464706810391,0.01771787250535715,-0.01775782372488996,"(0.0001, 0.0, 0.0, 0.0, 0.0, 0.0, 0.0, 0.0001, 0.0, 0.0, 0.0, 0.0, 0.0, 0.0, 0.0001, 0.0, 0.0, 0.0, 0.0, 0.0, 0.0, 0.0001, 0.0, 0.0, 0.0, 0.0, 0.0, 0.0, 0.0001, 0.0, 0.0, 0.0, 0.0, 0.0, 0.0, 0.0001)"
1969/12/31/21:22:33.390000,66,1353,390000000,world,base_link,0.000978509536287616,-0.0006118641588746948,0.18228072219830083,1.2345016755739934e-05,1.0090816005752259e-05,-6.861285524115575e-06,0.9999999998493494,"(0.0001, 0.0, 0.0, 0.0, 0.0, 0.0, 0.0, 0.0001, 0.0, 0.0, 0.0, 0.0, 0.0, 0.0, 0.0001, 0.0, 0.0, 0.0, 0.0, 0.0, 0.0, 0.0001, 0.0, 0.0, 0.0, 0.0, 0.0, 0.0, 0.0001, 0.0, 0.0, 0.0, 0.0, 0.0, 0.0, 0.0001)",5.827150646254119e-05,-0.007411878668879404,0.0036761480522172194,0.0021852221838187633,0.003432726510778896,0.002822495814758357,"(0.0001, 0.0, 0.0, 0.0, 0.0, 0.0, 0.0, 0.0001, 0.0, 0.0, 0.0, 0.0, 0.0, 0.0, 0.0001, 0.0, 0.0, 0.0, 0.0, 0.0, 0.0, 0.0001, 0.0, 0.0, 0.0, 0.0, 0.0, 0.0, 0.0001, 0.0, 0.0, 0.0, 0.0, 0.0, 0.0, 0.0001)"
1969/12/31/21:22:33.430000,67,1353,410000000,world,base_link,0.000978758243959247,-0.000611859668097986,0.18228072189802197,1.2344835115441185e-05,1.0090295782122043e-05,-6.858268672692798e-06,0.9999999998493776,"(0.0001, 0.0, 0.0, 0.0, 0.0, 0.0, 0.0, 0.0001, 0.0, 0.0, 0.0, 0.0, 0.0, 0.0, 0.0001, 0.0, 0.0, 0.0, 0.0, 0.0, 0.0, 0.0001, 0.0, 0.0, 0.0, 0.0, 0.0, 0.0, 0.0001, 0.0, 0.0, 0.0, 0.0, 0.0, 0.0, 0.0001)",0.011968736370522298,-0.012113798980471034,-0.006271310587754897,-0.005958818132718535,-0.004165694790543055,0.01507365872263034,"(0.0001, 0.0, 0.0, 0.0, 0.0, 0.0, 0.0, 0.0001, 0.0, 0.0, 0.0, 0.0, 0.0, 0.0, 0.0001, 0.0, 0.0, 0.0, 0.0, 0.0, 0.0, 0.0001, 0.0, 0.0, 0.0, 0.0, 0.0, 0.0, 0.0001, 0.0, 0.0, 0.0, 0.0, 0.0, 0.0, 0.0001)"
1969/12/31/21:22:33.430000,68,1353,430000000,world,base_link,0.0009790069761754301,-0.0006118551772254927,0.18228072159777897,1.2344653497993714e-05,1.0089775622696572e-05,-6.85525202271091e-06,0.9999999998494058,"(0.0001, 0.0, 0.0, 0.0, 0.0, 0.0, 0.0, 0.0001, 0.0, 0.0, 0.0, 0.0, 0.0, 0.0, 0.0001, 0.0, 0.0, 0.0, 0.0, 0.0, 0.0, 0.0001, 0.0, 0.0, 0.0, 0.0, 0.0, 0.0, 0.0001, 0.0, 0.0, 0.0, 0.0, 0.0, 0.0, 0.0001)",-0.0067190424612054945,-0.009571705412351361,-0.010677879316195744,-0.003415715044306852,-0.013481701691440254,-0.00041387510449971126,"(0.0001, 0.0, 0.0, 0.0, 0.0, 0.0, 0.0, 0.0001, 0.0, 0.0, 0.0, 0.0, 0.0, 0.0, 0.0001, 0.0, 0.0, 0.0, 0.0, 0.0, 0.0, 0.0001, 0.0, 0.0, 0.0, 0.0, 0.0, 0.0, 0.0001, 0.0, 0.0, 0.0, 0.0, 0.0, 0.0, 0.0001)"
1969/12/31/21:22:33.470000,69,1353,450000000,world,base_link,0.0009792557329362252,-0.0006118506862573397,0.18228072129757192,1.2344471903365786e-05,1.0089255527454166e-05,-6.85223557415015e-06,0.999999999849434,"(0.0001, 0.0, 0.0, 0.0, 0.0, 0.0, 0.0, 0.0001, 0.0, 0.0, 0.0, 0.0, 0.0, 0.0, 0.0001, 0.0, 0.0, 0.0, 0.0, 0.0, 0.0, 0.0001, 0.0, 0.0, 0.0, 0.0, 0.0, 0.0, 0.0001, 0.0, 0.0, 0.0, 0.0, 0.0, 0.0, 0.0001)",0.007954937380985296,0.012333616102517856,-0.013783606010315225,0.019599414583415544,0.00864086182043493,0.0016499728941885457,"(0.0001, 0.0, 0.0, 0.0, 0.0, 0.0, 0.0, 0.0001, 0.0, 0.0, 0.0, 0.0, 0.0, 0.0, 0.0001, 0.0, 0.0, 0.0, 0.0, 0.0, 0.0, 0.0001, 0.0, 0.0, 0.0, 0.0, 0.0, 0.0, 0.0001, 0.0, 0.0, 0.0, 0.0, 0.0, 0.0, 0.0001)"
1969/12/31/21:22:33.470000,70,1353,470000000,world,base_link,0.0009795045142416614,-0.0006118461951934995,0.18228072099740067,1.2344290331533804e-05,1.0088735496304276e-05,-6.849219326987411e-06,0.9999999998494622,"(0.0001, 0.0, 0.0, 0.0, 0.0, 0.0, 0.0, 0.0001, 0.0, 0.0, 0.0, 0.0, 0.0, 0.0, 0.0001, 0.0, 0.0, 0.0, 0.0, 0.0, 0.0, 0.0001, 0.0, 0.0, 0.0, 0.0, 0.0, 0.0, 0.0001, 0.0, 0.0, 0.0, 0.0, 0.0, 0.0, 0.0001)",0.0019443516354098415,-0.005444799046335179,0.0007661282343565032,0.0007937901928135677,0.010716719293926705,0.019017363843949777,"(0.0001, 0.0, 0.0, 0.0, 0.0, 0.0, 0.0, 0.0001, 0.0, 0.0, 0.0, 0.0, 0.0, 0.0, 0.0001, 0.0, 0.0, 0.0, 0.0, 0.0, 0.0, 0.0001, 0.0, 0.0, 0.0, 0.0, 0.0, 0.0, 0.0001, 0.0, 0.0, 0.0, 0.0, 0.0, 0.0, 0.0001)"
1969/12/31/21:22:33.520000,71,1353,490000000,world,base_link,0.0009797533200918418,-0.0006118417040339996,0.1822807206972653,1.2344108782562992e-05,1.0088215529346133e-05,-6.8462032811799675e-06,0.9999999998494902,"(0.0001, 0.0, 0.0, 0.0, 0.0, 0.0, 0.0, 0.0001, 0.0, 0.0, 0.0, 0.0, 0.0, 0.0, 0.0001, 0.0, 0.0, 0.0, 0.0, 0.0, 0.0, 0.0001, 0.0, 0.0, 0.0, 0.0, 0.0, 0.0, 0.0001, 0.0, 0.0, 0.0, 0.0, 0.0, 0.0, 0.0001)",-0.002946439884033682,0.01760279845695497,0.004430013660901057,-0.0008535090796878756,0.003231819688163406,0.004569712374130892,"(0.0001, 0.0, 0.0, 0.0, 0.0, 0.0, 0.0, 0.0001, 0.0, 0.0, 0.0, 0.0, 0.0, 0.0, 0.0001, 0.0, 0.0, 0.0, 0.0, 0.0, 0.0, 0.0001, 0.0, 0.0, 0.0, 0.0, 0.0, 0.0, 0.0001, 0.0, 0.0, 0.0, 0.0, 0.0, 0.0, 0.0001)"
1969/12/31/21:22:33.520000,72,1353,510000000,world,base_link,0.0009800021504868038,-0.0006118372127787985,0.18228072039716578,1.2343927256433739e-05,1.0087695626501627e-05,-6.843187436704365e-06,0.9999999998495184,"(0.0001, 0.0, 0.0, 0.0, 0.0, 0.0, 0.0, 0.0001, 0.0, 0.0, 0.0, 0.0, 0.0, 0.0, 0.0001, 0.0, 0.0, 0.0, 0.0, 0.0, 0.0, 0.0001, 0.0, 0.0, 0.0, 0.0, 0.0, 0.0, 0.0001, 0.0, 0.0, 0.0, 0.0, 0.0, 0.0, 0.0001)",0.0070381511348277985,0.006312420396423932,0.011850461599469552,-0.005527601411384876,0.0006817080362958279,0.0047378256804752154,"(0.0001, 0.0, 0.0, 0.0, 0.0, 0.0, 0.0, 0.0001, 0.0, 0.0, 0.0, 0.0, 0.0, 0.0, 0.0001, 0.0, 0.0, 0.0, 0.0, 0.0, 0.0, 0.0001, 0.0, 0.0, 0.0, 0.0, 0.0, 0.0, 0.0001, 0.0, 0.0, 0.0, 0.0, 0.0, 0.0, 0.0001)"
1969/12/31/21:22:33.570000,73,1353,530000000,world,base_link,0.0009802510054266068,-0.0006118327214279656,0.1822807200971021,1.2343745753060413e-05,1.008717578776096e-05,-6.840171793546772e-06,0.9999999998495466,"(0.0001, 0.0, 0.0, 0.0, 0.0, 0.0, 0.0, 0.0001, 0.0, 0.0, 0.0, 0.0, 0.0, 0.0, 0.0001, 0.0, 0.0, 0.0, 0.0, 0.0, 0.0, 0.0001, 0.0, 0.0, 0.0, 0.0, 0.0, 0.0, 0.0001, 0.0, 0.0, 0.0, 0.0, 0.0, 0.0, 0.0001)",-0.009699043564025381,-0.007101223166638264,0.003658656408329244,-0.007530185124867306,-0.023506773431199952,-0.012383697877992171,"(0.0001, 0.0, 0.0, 0.0, 0.0, 0.0, 0.0, 0.0001, 0.0, 0.0, 0.0, 0.0, 0.0, 0.0, 0.0001, 0.0, 0.0, 0.0, 0.0, 0.0, 0.0, 0.0001, 0.0, 0.0, 0.0, 0.0, 0.0, 0.0, 0.0001, 0.0, 0.0, 0.0, 0.0, 0.0, 0.0, 0.0001)"
1969/12/31/21:22:33.570000,74,1353,550000000,world,base_link,0.0009804998849113394,-0.0006118282299815009,0.18228071979707428,1.2343564272558299e-05,1.0086656013234262e-05,-6.837156351696099e-06,0.9999999998495746,"(0.0001, 0.0, 0.0, 0.0, 0.0, 0.0, 0.0, 0.0001, 0.0, 0.0, 0.0, 0.0, 0.0, 0.0, 0.0001, 0.0, 0.0, 0.0, 0.0, 0.0, 0.0, 0.0001, 0.0, 0.0, 0.0, 0.0, 0.0, 0.0, 0.0001, 0.0, 0.0, 0.0, 0.0, 0.0, 0.0, 0.0001)",-0.021085287659503887,0.02150888369094058,-0.00886636985967218,-0.007084979893215827,-0.011206172456326392,-0.0037856224346647185,"(0.0001, 0.0, 0.0, 0.0, 0.0, 0.0, 0.0, 0.0001, 0.0, 0.0, 0.0, 0.0, 0.0, 0.0, 0.0001, 0.0, 0.0, 0.0, 0.0, 0.0, 0.0, 0.0001, 0.0, 0.0, 0.0, 0.0, 0.0, 0.0, 0.0001, 0.0, 0.0, 0.0, 0.0, 0.0, 0.0, 0.0001)"
1969/12/31/21:22:33.570000,75,1353,570000000,world,base_link,0.0009807487889410401,-0.000611823738439432,0.18228071949708233,1.234338281484738e-05,1.008613630281164e-05,-6.834141111100748e-06,0.9999999998496027,"(0.0001, 0.0, 0.0, 0.0, 0.0, 0.0, 0.0, 0.0001, 0.0, 0.0, 0.0, 0.0, 0.0, 0.0, 0.0001, 0.0, 0.0, 0.0, 0.0, 0.0, 0.0, 0.0001, 0.0, 0.0, 0.0, 0.0, 0.0, 0.0, 0.0001, 0.0, 0.0, 0.0, 0.0, 0.0, 0.0, 0.0001)",0.015569879921371174,0.016238890648535072,-0.004480978009900367,-0.0019711905412184783,0.0017176925855338812,0.006618967134212088,"(0.0001, 0.0, 0.0, 0.0, 0.0, 0.0, 0.0, 0.0001, 0.0, 0.0, 0.0, 0.0, 0.0, 0.0, 0.0001, 0.0, 0.0, 0.0, 0.0, 0.0, 0.0, 0.0001, 0.0, 0.0, 0.0, 0.0, 0.0, 0.0, 0.0001, 0.0, 0.0, 0.0, 0.0, 0.0, 0.0, 0.0001)"
1969/12/31/21:22:33.610000,76,1353,590000000,world,base_link,0.0009809977175157779,-0.0006118192468017175,0.18228071919712618,1.2343201379951231e-05,1.008561665647442e-05,-6.831126071753726e-06,0.9999999998496307,"(0.0001, 0.0, 0.0, 0.0, 0.0, 0.0, 0.0, 0.0001, 0.0, 0.0, 0.0, 0.0, 0.0, 0.0, 0.0001, 0.0, 0.0, 0.0, 0.0, 0.0, 0.0, 0.0001, 0.0, 0.0, 0.0, 0.0, 0.0, 0.0, 0.0001, 0.0, 0.0, 0.0, 0.0, 0.0, 0.0, 0.0001)",-0.003691546910531707,0.0001268230866979213,-0.012713220437710135,0.002334220124335671,0.0048391295710248925,-0.0047777385064507695,"(0.0001, 0.0, 0.0, 0.0, 0.0, 0.0, 0.0, 0.0001, 0.0, 0.0, 0.0, 0.0, 0.0, 0.0, 0.0001, 0.0, 0.0, 0.0, 0.0, 0.0, 0.0, 0.0001, 0.0, 0.0, 0.0, 0.0, 0.0, 0.0, 0.0001, 0.0, 0.0, 0.0, 0.0, 0.0, 0.0, 0.0001)"
1969/12/31/21:22:33.610000,77,1353,610000000,world,base_link,0.0009812466706356257,-0.0006118147550684128,0.18228071889720582,1.2343019967869384e-05,1.0085097074304828e-05,-6.828111233626429e-06,0.9999999998496589,"(0.0001, 0.0, 0.0, 0.0, 0.0, 0.0, 0.0, 0.0001, 0.0, 0.0, 0.0, 0.0, 0.0, 0.0, 0.0001, 0.0, 0.0, 0.0, 0.0, 0.0, 0.0, 0.0001, 0.0, 0.0, 0.0, 0.0, 0.0, 0.0, 0.0001, 0.0, 0.0, 0.0, 0.0, 0.0, 0.0, 0.0001)",0.007568923652715762,0.005911102739101834,0.0011550991983226304,0.0018459866183880473,-0.010322161800142797,0.007742521548738623,"(0.0001, 0.0, 0.0, 0.0, 0.0, 0.0, 0.0, 0.0001, 0.0, 0.0, 0.0, 0.0, 0.0, 0.0, 0.0001, 0.0, 0.0, 0.0, 0.0, 0.0, 0.0, 0.0001, 0.0, 0.0, 0.0, 0.0, 0.0, 0.0, 0.0001, 0.0, 0.0, 0.0, 0.0, 0.0, 0.0, 0.0001)"
1969/12/31/21:22:33.630000,78,1353,630000000,world,base_link,0.00098149564830063,-0.0006118102632394623,0.18228071859732137,1.2342838578579269e-05,1.0084577556138615e-05,-6.82509659668324e-06,0.9999999998496869,"(0.0001, 0.0, 0.0, 0.0, 0.0, 0.0, 0.0, 0.0001, 0.0, 0.0, 0.0, 0.0, 0.0, 0.0, 0.0001, 0.0, 0.0, 0.0, 0.0, 0.0, 0.0, 0.0001, 0.0, 0.0, 0.0, 0.0, 0.0, 0.0, 0.0001, 0.0, 0.0, 0.0, 0.0, 0.0, 0.0, 0.0001)",-0.009397238835650351,0.018001388460352975,-0.021546610196983354,6.075528048944169e-05,-0.0059318963195796074,-0.0008363010740329486,"(0.0001, 0.0, 0.0, 0.0, 0.0, 0.0, 0.0, 0.0001, 0.0, 0.0, 0.0, 0.0, 0.0, 0.0, 0.0001, 0.0, 0.0, 0.0, 0.0, 0.0, 0.0, 0.0001, 0.0, 0.0, 0.0, 0.0, 0.0, 0.0, 0.0001, 0.0, 0.0, 0.0, 0.0, 0.0, 0.0, 0.0001)"
1969/12/31/21:22:33.650000,79,1353,650000000,world,base_link,0.0009817446505108489,-0.0006118057713149772,0.18228071829747272,1.2342657212092134e-05,1.0084058102088016e-05,-6.822082160913707e-06,0.9999999998497149,"(0.0001, 0.0, 0.0, 0.0, 0.0, 0.0, 0.0, 0.0001, 0.0, 0.0, 0.0, 0.0, 0.0, 0.0, 0.0001, 0.0, 0.0, 0.0, 0.0, 0.0, 0.0, 0.0001, 0.0, 0.0, 0.0, 0.0, 0.0, 0.0, 0.0001, 0.0, 0.0, 0.0, 0.0, 0.0, 0.0, 0.0001)",-0.012990995613886345,0.009287388707110952,-0.0020881604423302366,0.011283273399734008,-0.021607454467012177,-0.003944129945220477,"(0.0001, 0.0, 0.0, 0.0, 0.0, 0.0, 0.0, 0.0001, 0.0, 0.0, 0.0, 0.0, 0.0, 0.0, 0.0001, 0.0, 0.0, 0.0, 0.0, 0.0, 0.0, 0.0001, 0.0, 0.0, 0.0, 0.0, 0.0, 0.0, 0.0001, 0.0, 0.0, 0.0, 0.0, 0.0, 0.0, 0.0001)"
